[
 {
   "SITE NAME": "OKANAGAN RIVER",
   "CU NAME": "Osoyoos",
   "CU TYPE": "Current",
   "FID": 0,
   "SP QUAL": "SEL",
   "POP ID": 1864,
   "GFE ID": 442,
   "GEO FEATURE TYPE": "Stream",
   "YLAT": 49.07636988,
   "XLONG": -119.5181801,
   "FAZ_ACRO": "OK",
   "MAZ_ACRO": "ORWA",
   "JAZ_ACRO": "OK+ORWA",
   "CU INDEX": "SEL-01-01",
   "OBJECTID": 1
 },
 {
   "SITE NAME": "CHILLIWACK LAKE",
   "CU NAME": "Chilliwack-Early Summer Timing",
   "CU TYPE": "Current",
   "FID": 1,
   "SP QUAL": "SEL",
   "POP ID": 45092,
   "GFE ID": 2440,
   "GEO FEATURE TYPE": "Lake",
   "YLAT": 49.08279015,
   "XLONG": -121.4559459,
   "FAZ_ACRO": "LFR",
   "MAZ_ACRO": "GStr",
   "JAZ_ACRO": "LFR+GStr",
   "CU INDEX": "SEL-03-01",
   "OBJECTID": 2
 },
 {
   "SITE NAME": "CHILLIWACK RIVER-UPPER",
   "CU NAME": "Chilliwack-Early Summer Timing",
   "CU TYPE": "Current",
   "FID": 2,
   "SP QUAL": "SEL",
   "POP ID": 46986,
   "GFE ID": 63,
   "GEO FEATURE TYPE": "Stream segment",
   "YLAT": 49.01504784,
   "XLONG": -121.4086645,
   "FAZ_ACRO": "LFR",
   "MAZ_ACRO": "GStr",
   "JAZ_ACRO": "LFR+GStr",
   "CU INDEX": "SEL-03-01",
   "OBJECTID": 3
 },
 {
   "SITE NAME": "DEPOT CREEK",
   "CU NAME": "Chilliwack-Early Summer Timing",
   "CU TYPE": "Current",
   "FID": 3,
   "SP QUAL": "SEL",
   "POP ID": 7726,
   "GFE ID": 85,
   "GEO FEATURE TYPE": "Stream",
   "YLAT": 49.02928794,
   "XLONG": -121.4015167,
   "FAZ_ACRO": "LFR",
   "MAZ_ACRO": "GStr",
   "JAZ_ACRO": "LFR+GStr",
   "CU INDEX": "SEL-03-01",
   "OBJECTID": 4
 },
 {
   "SITE NAME": "CULTUS LAKE",
   "CU NAME": "Cultus-Late Timing",
   "CU TYPE": "Current",
   "FID": 4,
   "SP QUAL": "SEL",
   "POP ID": 45093,
   "GFE ID": 2441,
   "GEO FEATURE TYPE": "Lake",
   "YLAT": 49.07507039,
   "XLONG": -121.9817234,
   "FAZ_ACRO": "LFR",
   "MAZ_ACRO": "GStr",
   "JAZ_ACRO": "LFR+GStr",
   "CU INDEX": "SEL-03-02",
   "OBJECTID": 5
 },
 {
   "SITE NAME": "BIG SILVER CREEK",
   "CU NAME": "Harrison-downstream migrating-Late Timing",
   "CU TYPE": "Current",
   "FID": 5,
   "SP QUAL": "SEL",
   "POP ID": 46072,
   "GFE ID": 192,
   "GEO FEATURE TYPE": "Stream",
   "YLAT": 49.57559391,
   "XLONG": -121.8286997,
   "FAZ_ACRO": "LFR",
   "MAZ_ACRO": "GStr",
   "JAZ_ACRO": "LFR+GStr",
   "CU INDEX": "SEL-03-03",
   "OBJECTID": 6
 },
 {
   "SITE NAME": "COGBURN CREEK",
   "CU NAME": "Harrison-downstream migrating-Late Timing",
   "CU TYPE": "Current",
   "FID": 6,
   "SP QUAL": "SEL",
   "POP ID": 46065,
   "GFE ID": 190,
   "GEO FEATURE TYPE": "Stream",
   "YLAT": 49.53455563,
   "XLONG": -121.7638652,
   "FAZ_ACRO": "LFR",
   "MAZ_ACRO": "GStr",
   "JAZ_ACRO": "LFR+GStr",
   "CU INDEX": "SEL-03-03",
   "OBJECTID": 7
 },
 {
   "SITE NAME": "CRAZY CREEK/LFR",
   "CU NAME": "Harrison-downstream migrating-Late Timing",
   "CU TYPE": "Current",
   "FID": 7,
   "SP QUAL": "SEL",
   "POP ID": 3091,
   "GFE ID": 2767,
   "GEO FEATURE TYPE": "Stream",
   "YLAT": 49.73760252,
   "XLONG": -122.1501069,
   "FAZ_ACRO": "LFR",
   "MAZ_ACRO": "GStr",
   "JAZ_ACRO": "LFR+GStr",
   "CU INDEX": "SEL-03-03",
   "OBJECTID": 8
 },
 {
   "SITE NAME": "DOUGLAS CREEK/LILL",
   "CU NAME": "Harrison-downstream migrating-Late Timing",
   "CU TYPE": "Current",
   "FID": 8,
   "SP QUAL": "SEL",
   "POP ID": 46083,
   "GFE ID": 195,
   "GEO FEATURE TYPE": "Stream",
   "YLAT": 49.76361308,
   "XLONG": -122.1547819,
   "FAZ_ACRO": "LILL",
   "MAZ_ACRO": "GStr",
   "JAZ_ACRO": "LILL+GStr",
   "CU INDEX": "SEL-03-03",
   "OBJECTID": 9
 },
 {
   "SITE NAME": "FIFTEEN MILE CREEK/LFR",
   "CU NAME": "Harrison-downstream migrating-Late Timing",
   "CU TYPE": "Current",
   "FID": 9,
   "SP QUAL": "SEL",
   "POP ID": 61071,
   "GFE ID": 5000189,
   "GEO FEATURE TYPE": "Stream",
   "YLAT": 49.49405753,
   "XLONG": -121.76506,
   "FAZ_ACRO": "LFR",
   "MAZ_ACRO": "GStr",
   "JAZ_ACRO": "LFR+GStr",
   "CU INDEX": "SEL-03-03",
   "OBJECTID": 10
 },
 {
   "SITE NAME": "HARRISON LAKE",
   "CU NAME": "Harrison-downstream migrating-Late Timing",
   "CU TYPE": "Current",
   "FID": 10,
   "SP QUAL": "SEL",
   "POP ID": 45086,
   "GFE ID": 2435,
   "GEO FEATURE TYPE": "Lake",
   "YLAT": 49.32683266,
   "XLONG": -121.7812318,
   "FAZ_ACRO": "LFR",
   "MAZ_ACRO": "GStr",
   "JAZ_ACRO": "LFR+GStr",
   "CU INDEX": "SEL-03-03",
   "OBJECTID": 11
 },
 {
   "SITE NAME": "MYSTERY CREEK",
   "CU NAME": "Harrison-downstream migrating-Late Timing",
   "CU TYPE": "Current",
   "FID": 11,
   "SP QUAL": "SEL",
   "POP ID": 46063,
   "GFE ID": 189,
   "GEO FEATURE TYPE": "Stream",
   "YLAT": 49.52722769,
   "XLONG": -121.8856869,
   "FAZ_ACRO": "LFR",
   "MAZ_ACRO": "GStr",
   "JAZ_ACRO": "LFR+GStr",
   "CU INDEX": "SEL-03-03",
   "OBJECTID": 12
 },
 {
   "SITE NAME": "PURCELL CREEK",
   "CU NAME": "Harrison-downstream migrating-Late Timing",
   "CU TYPE": "Current",
   "FID": 12,
   "SP QUAL": "SEL",
   "POP ID": 46088,
   "GFE ID": 196,
   "GEO FEATURE TYPE": "Stream",
   "YLAT": 49.74075361,
   "XLONG": -122.1020492,
   "FAZ_ACRO": "LFR",
   "MAZ_ACRO": "GStr",
   "JAZ_ACRO": "LFR+GStr",
   "CU INDEX": "SEL-03-03",
   "OBJECTID": 13
 },
 {
   "SITE NAME": "SLOQUET CREEK",
   "CU NAME": "Harrison-downstream migrating-Late Timing",
   "CU TYPE": "Current",
   "FID": 13,
   "SP QUAL": "SEL",
   "POP ID": 46093,
   "GFE ID": 197,
   "GEO FEATURE TYPE": "Stream",
   "YLAT": 49.76499948,
   "XLONG": -122.2029894,
   "FAZ_ACRO": "LILL",
   "MAZ_ACRO": "GStr",
   "JAZ_ACRO": "LILL+GStr",
   "CU INDEX": "SEL-03-03",
   "OBJECTID": 14
 },
 {
   "SITE NAME": "TIPELLA CREEK",
   "CU NAME": "Harrison-downstream migrating-Late Timing",
   "CU TYPE": "Current",
   "FID": 14,
   "SP QUAL": "SEL",
   "POP ID": 46078,
   "GFE ID": 194,
   "GEO FEATURE TYPE": "Stream",
   "YLAT": 49.74315616,
   "XLONG": -122.1508804,
   "FAZ_ACRO": "LFR",
   "MAZ_ACRO": "GStr",
   "JAZ_ACRO": "LFR+GStr",
   "CU INDEX": "SEL-03-03",
   "OBJECTID": 15
 },
 {
   "SITE NAME": "TROUT LAKE CREEK",
   "CU NAME": "Harrison-downstream migrating-Late Timing",
   "CU TYPE": "Current",
   "FID": 15,
   "SP QUAL": "SEL",
   "POP ID": 46059,
   "GFE ID": 188,
   "GEO FEATURE TYPE": "Stream",
   "YLAT": 49.3419005,
   "XLONG": -121.7474738,
   "FAZ_ACRO": "LFR",
   "MAZ_ACRO": "GStr",
   "JAZ_ACRO": "LFR+GStr",
   "CU INDEX": "SEL-03-03",
   "OBJECTID": 16
 },
 {
   "SITE NAME": "TWENTY MILE CREEK",
   "CU NAME": "Harrison-downstream migrating-Late Timing",
   "CU TYPE": "Current",
   "FID": 16,
   "SP QUAL": "SEL",
   "POP ID": 46069,
   "GFE ID": 191,
   "GEO FEATURE TYPE": "Stream",
   "YLAT": 49.5340066,
   "XLONG": -121.8840218,
   "FAZ_ACRO": "LFR",
   "MAZ_ACRO": "GStr",
   "JAZ_ACRO": "LFR+GStr",
   "CU INDEX": "SEL-03-03",
   "OBJECTID": 17
 },
 {
   "SITE NAME": "EAST CREEK/LFR",
   "CU NAME": "Harrison-upstream migrating-Late Timing",
   "CU TYPE": "Current",
   "FID": 17,
   "SP QUAL": "SEL",
   "POP ID": 46055,
   "GFE ID": 186,
   "GEO FEATURE TYPE": "Stream",
   "YLAT": 49.31678927,
   "XLONG": -121.8835652,
   "FAZ_ACRO": "LFR",
   "MAZ_ACRO": "GStr",
   "JAZ_ACRO": "LFR+GStr",
   "CU INDEX": "SEL-03-04",
   "OBJECTID": 18
 },
 {
   "SITE NAME": "SAKWI CREEK",
   "CU NAME": "Harrison-upstream migrating-Late Timing",
   "CU TYPE": "Current",
   "FID": 18,
   "SP QUAL": "SEL",
   "POP ID": 69022,
   "GFE ID": 185,
   "GEO FEATURE TYPE": "Stream",
   "YLAT": 49.32931022,
   "XLONG": -121.8778564,
   "FAZ_ACRO": "LFR",
   "MAZ_ACRO": "GStr",
   "JAZ_ACRO": "LFR+GStr",
   "CU INDEX": "SEL-03-04",
   "OBJECTID": 19
 },
 {
   "SITE NAME": "STEELHEAD CREEK/LFR(2)",
   "CU NAME": "Harrison-upstream migrating-Late Timing",
   "CU TYPE": "Current",
   "FID": 19,
   "SP QUAL": "SEL",
   "POP ID": 46049,
   "GFE ID": 2002436,
   "GEO FEATURE TYPE": "Stream",
   "YLAT": 49.32592004,
   "XLONG": -121.876389,
   "FAZ_ACRO": "LFR",
   "MAZ_ACRO": "GStr",
   "JAZ_ACRO": "LFR+GStr",
   "CU INDEX": "SEL-03-04",
   "OBJECTID": 20
 },
 {
   "SITE NAME": "STEELHEAD CREEK/LFR(2)",
   "CU NAME": "Harrison-upstream migrating-Late Timing",
   "CU TYPE": "Current",
   "FID": 20,
   "SP QUAL": "SEL",
   "POP ID": 61066,
   "GFE ID": 2002436,
   "GEO FEATURE TYPE": "Stream",
   "YLAT": 49.32592004,
   "XLONG": -121.876389,
   "FAZ_ACRO": "LFR",
   "MAZ_ACRO": "GStr",
   "JAZ_ACRO": "LFR+GStr",
   "CU INDEX": "SEL-03-04",
   "OBJECTID": 21
 },
 {
   "SITE NAME": "WEAVER  SPAWNING CHANNEL",
   "CU NAME": "Harrison-upstream migrating-Late Timing",
   "CU TYPE": "Current",
   "FID": 21,
   "SP QUAL": "SEL",
   "POP ID": 45087,
   "GFE ID": 2436,
   "GEO FEATURE TYPE": "Artificial Channel",
   "YLAT": 49.3212,
   "XLONG": -121.8836,
   "FAZ_ACRO": "LFR",
   "MAZ_ACRO": "GStr",
   "JAZ_ACRO": "LFR+GStr",
   "CU INDEX": "SEL-03-04",
   "OBJECTID": 22
 },
 {
   "SITE NAME": "WEAVER CREEK",
   "CU NAME": "Harrison-upstream migrating-Late Timing",
   "CU TYPE": "Current",
   "FID": 22,
   "SP QUAL": "SEL",
   "POP ID": 46044,
   "GFE ID": 183,
   "GEO FEATURE TYPE": "Stream",
   "YLAT": 49.31411526,
   "XLONG": -121.8770135,
   "FAZ_ACRO": "LFR",
   "MAZ_ACRO": "GStr",
   "JAZ_ACRO": "LFR+GStr",
   "CU INDEX": "SEL-03-04",
   "OBJECTID": 23
 },
 {
   "SITE NAME": "CORBOLD CREEK",
   "CU NAME": "Pitt-Early Summer Timing",
   "CU TYPE": "Current",
   "FID": 23,
   "SP QUAL": "SEL",
   "POP ID": 7690,
   "GFE ID": 3492,
   "GEO FEATURE TYPE": "Stream",
   "YLAT": 49.61630923,
   "XLONG": -122.6476711,
   "FAZ_ACRO": "LFR",
   "MAZ_ACRO": "GStr",
   "JAZ_ACRO": "LFR+GStr",
   "CU INDEX": "SEL-03-05",
   "OBJECTID": 24
 },
 {
   "SITE NAME": "FISH HATCHERY CREEK",
   "CU NAME": "Pitt-Early Summer Timing",
   "CU TYPE": "Current",
   "FID": 24,
   "SP QUAL": "SEL",
   "POP ID": 7695,
   "GFE ID": 3507,
   "GEO FEATURE TYPE": "Stream",
   "YLAT": 49.6060825,
   "XLONG": -122.6337432,
   "FAZ_ACRO": "LFR",
   "MAZ_ACRO": "GStr",
   "JAZ_ACRO": "LFR+GStr",
   "CU INDEX": "SEL-03-05",
   "OBJECTID": 25
 },
 {
   "SITE NAME": "NORTH BOISE CREEK",
   "CU NAME": "Pitt-Early Summer Timing",
   "CU TYPE": "Current",
   "FID": 25,
   "SP QUAL": "SEL",
   "POP ID": 7691,
   "GFE ID": 26776,
   "GEO FEATURE TYPE": "Stream",
   "YLAT": 49.62092976,
   "XLONG": -122.6625607,
   "FAZ_ACRO": "LFR",
   "MAZ_ACRO": "GStr",
   "JAZ_ACRO": "LFR+GStr",
   "CU INDEX": "SEL-03-05",
   "OBJECTID": 26
 },
 {
   "SITE NAME": "PITT LAKE",
   "CU NAME": "Pitt-Early Summer Timing",
   "CU TYPE": "Current",
   "FID": 26,
   "SP QUAL": "SEL",
   "POP ID": 45095,
   "GFE ID": 2443,
   "GEO FEATURE TYPE": "Lake",
   "YLAT": 49.395436,
   "XLONG": -122.5599964,
   "FAZ_ACRO": "LFR",
   "MAZ_ACRO": "GStr",
   "JAZ_ACRO": "LFR+GStr",
   "CU INDEX": "SEL-03-05",
   "OBJECTID": 27
 },
 {
   "SITE NAME": "PITT RIVER-UPPER",
   "CU NAME": "Pitt-Early Summer Timing",
   "CU TYPE": "Current",
   "FID": 27,
   "SP QUAL": "SEL",
   "POP ID": 47917,
   "GFE ID": 13,
   "GEO FEATURE TYPE": "Stream",
   "YLAT": 49.56628595,
   "XLONG": -122.6343385,
   "FAZ_ACRO": "LFR",
   "MAZ_ACRO": "GStr",
   "JAZ_ACRO": "LFR+GStr",
   "CU INDEX": "SEL-03-05",
   "OBJECTID": 28
 },
 {
   "SITE NAME": "SLOUGH CREEK",
   "CU NAME": "Pitt-Early Summer Timing",
   "CU TYPE": "Current",
   "FID": 28,
   "SP QUAL": "SEL",
   "POP ID": 7696,
   "GFE ID": 3506,
   "GEO FEATURE TYPE": "Slough",
   "YLAT": 49.55024439,
   "XLONG": -122.6154395,
   "FAZ_ACRO": "LFR",
   "MAZ_ACRO": "GStr",
   "JAZ_ACRO": "LFR+GStr",
   "CU INDEX": "SEL-03-05",
   "OBJECTID": 29
 },
 {
   "SITE NAME": "SOUTH BOISE CREEK",
   "CU NAME": "Pitt-Early Summer Timing",
   "CU TYPE": "Current",
   "FID": 29,
   "SP QUAL": "SEL",
   "POP ID": 7692,
   "GFE ID": 26777,
   "GEO FEATURE TYPE": "Stream",
   "YLAT": 49.60450418,
   "XLONG": -122.6416405,
   "FAZ_ACRO": "LFR",
   "MAZ_ACRO": "GStr",
   "JAZ_ACRO": "LFR+GStr",
   "CU INDEX": "SEL-03-05",
   "OBJECTID": 30
 },
 {
   "SITE NAME": "UPPER PITT CHANNEL",
   "CU NAME": "Pitt-Early Summer Timing",
   "CU TYPE": "Current",
   "FID": 30,
   "SP QUAL": "SEL",
   "POP ID": 7693,
   "GFE ID": 26806,
   "GEO FEATURE TYPE": "Artificial Channel",
   "YLAT": 49.54896007,
   "XLONG": -122.6141134,
   "FAZ_ACRO": "LFR",
   "MAZ_ACRO": "GStr",
   "JAZ_ACRO": "LFR+GStr",
   "CU INDEX": "SEL-03-05",
   "OBJECTID": 31
 },
 {
   "SITE NAME": "BIRKENHEAD RIVER",
   "CU NAME": "Lillooet/Harrison-Late Timing",
   "CU TYPE": "Current",
   "FID": 31,
   "SP QUAL": "SEL",
   "POP ID": 46098,
   "GFE ID": 198,
   "GEO FEATURE TYPE": "Stream",
   "YLAT": 50.30644079,
   "XLONG": -122.6070114,
   "FAZ_ACRO": "LILL",
   "MAZ_ACRO": "GStr",
   "JAZ_ACRO": "LILL+GStr",
   "CU INDEX": "SEL-04-01",
   "OBJECTID": 61
 },
 {
   "SITE NAME": "GREEN RIVER/LILL",
   "CU NAME": "Lillooet/Harrison-Late Timing",
   "CU TYPE": "Current",
   "FID": 32,
   "SP QUAL": "SEL",
   "POP ID": 46107,
   "GFE ID": 201,
   "GEO FEATURE TYPE": "Stream",
   "YLAT": 50.30147365,
   "XLONG": -122.7224003,
   "FAZ_ACRO": "LILL",
   "MAZ_ACRO": "GStr",
   "JAZ_ACRO": "LILL+GStr",
   "CU INDEX": "SEL-04-01",
   "OBJECTID": 62
 },
 {
   "SITE NAME": "JOHN SANDY CREEK",
   "CU NAME": "Lillooet/Harrison-Late Timing",
   "CU TYPE": "Current",
   "FID": 33,
   "SP QUAL": "SEL",
   "POP ID": 46132,
   "GFE ID": 206,
   "GEO FEATURE TYPE": "Stream",
   "YLAT": 50.48484089,
   "XLONG": -122.9444129,
   "FAZ_ACRO": "LILL",
   "MAZ_ACRO": "GStr",
   "JAZ_ACRO": "LILL+GStr",
   "CU INDEX": "SEL-04-01",
   "OBJECTID": 63
 },
 {
   "SITE NAME": "LILLOOET RIVER-UPPER",
   "CU NAME": "Lillooet/Harrison-Late Timing",
   "CU TYPE": "Current",
   "FID": 34,
   "SP QUAL": "SEL",
   "POP ID": 46025,
   "GFE ID": 178,
   "GEO FEATURE TYPE": "Stream segment",
   "YLAT": 50.30287519,
   "XLONG": -122.6340291,
   "FAZ_ACRO": "LILL",
   "MAZ_ACRO": "GStr",
   "JAZ_ACRO": "LILL+GStr",
   "CU INDEX": "SEL-04-01",
   "OBJECTID": 64
 },
 {
   "SITE NAME": "MILLER CREEK/LILL",
   "CU NAME": "Lillooet/Harrison-Late Timing",
   "CU TYPE": "Current",
   "FID": 35,
   "SP QUAL": "SEL",
   "POP ID": 46117,
   "GFE ID": 203,
   "GEO FEATURE TYPE": "Stream",
   "YLAT": 50.35615798,
   "XLONG": -122.8325957,
   "FAZ_ACRO": "LILL",
   "MAZ_ACRO": "GStr",
   "JAZ_ACRO": "LILL+GStr",
   "CU INDEX": "SEL-04-01",
   "OBJECTID": 65
 },
 {
   "SITE NAME": "PEMBERTON CREEK",
   "CU NAME": "Lillooet/Harrison-Late Timing",
   "CU TYPE": "Current",
   "FID": 36,
   "SP QUAL": "SEL",
   "POP ID": 46112,
   "GFE ID": 202,
   "GEO FEATURE TYPE": "Stream",
   "YLAT": 50.30854893,
   "XLONG": -122.7670817,
   "FAZ_ACRO": "LILL",
   "MAZ_ACRO": "GStr",
   "JAZ_ACRO": "LILL+GStr",
   "CU INDEX": "SEL-04-01",
   "OBJECTID": 66
 },
 {
   "SITE NAME": "POOLE CREEK",
   "CU NAME": "Lillooet/Harrison-Late Timing",
   "CU TYPE": "Current",
   "FID": 37,
   "SP QUAL": "SEL",
   "POP ID": 46102,
   "GFE ID": 200,
   "GEO FEATURE TYPE": "Stream",
   "YLAT": 50.43542667,
   "XLONG": -122.6930628,
   "FAZ_ACRO": "LILL",
   "MAZ_ACRO": "GStr",
   "JAZ_ACRO": "LILL+GStr",
   "CU INDEX": "SEL-04-01",
   "OBJECTID": 67
 },
 {
   "SITE NAME": "RAILROAD CREEK",
   "CU NAME": "Lillooet/Harrison-Late Timing",
   "CU TYPE": "Current",
   "FID": 38,
   "SP QUAL": "SEL",
   "POP ID": 46147,
   "GFE ID": 209,
   "GEO FEATURE TYPE": "Stream",
   "YLAT": 50.53034875,
   "XLONG": -123.0505462,
   "FAZ_ACRO": "LILL",
   "MAZ_ACRO": "GStr",
   "JAZ_ACRO": "LILL+GStr",
   "CU INDEX": "SEL-04-01",
   "OBJECTID": 68
 },
 {
   "SITE NAME": "RYAN RIVER",
   "CU NAME": "Lillooet/Harrison-Late Timing",
   "CU TYPE": "Current",
   "FID": 39,
   "SP QUAL": "SEL",
   "POP ID": 46122,
   "GFE ID": 204,
   "GEO FEATURE TYPE": "Stream",
   "YLAT": 50.3589405,
   "XLONG": -122.8356076,
   "FAZ_ACRO": "LILL",
   "MAZ_ACRO": "GStr",
   "JAZ_ACRO": "LILL+GStr",
   "CU INDEX": "SEL-04-01",
   "OBJECTID": 69
 },
 {
   "SITE NAME": "SALMON CREEK/LILL",
   "CU NAME": "Lillooet/Harrison-Late Timing",
   "CU TYPE": "Current",
   "FID": 40,
   "SP QUAL": "SEL",
   "POP ID": 46137,
   "GFE ID": 207,
   "GEO FEATURE TYPE": "Stream",
   "YLAT": 50.48833354,
   "XLONG": -122.9546172,
   "FAZ_ACRO": "LILL",
   "MAZ_ACRO": "GStr",
   "JAZ_ACRO": "LILL+GStr",
   "CU INDEX": "SEL-04-01",
   "OBJECTID": 70
 },
 {
   "SITE NAME": "SAMPSON CREEK",
   "CU NAME": "Lillooet/Harrison-Late Timing",
   "CU TYPE": "Current",
   "FID": 41,
   "SP QUAL": "SEL",
   "POP ID": 46152,
   "GFE ID": 210,
   "GEO FEATURE TYPE": "Stream",
   "YLAT": 50.53344979,
   "XLONG": -123.1181936,
   "FAZ_ACRO": "LILL",
   "MAZ_ACRO": "GStr",
   "JAZ_ACRO": "LILL+GStr",
   "CU INDEX": "SEL-04-01",
   "OBJECTID": 71
 },
 {
   "SITE NAME": "TAILLEFER CREEK",
   "CU NAME": "Lillooet/Harrison-Late Timing",
   "CU TYPE": "Current",
   "FID": 42,
   "SP QUAL": "SEL",
   "POP ID": 7743,
   "GFE ID": 54098,
   "GEO FEATURE TYPE": "Stream",
   "YLAT": 50.49871358,
   "XLONG": -122.7322623,
   "FAZ_ACRO": "LILL",
   "MAZ_ACRO": "GStr",
   "JAZ_ACRO": "LILL+GStr",
   "CU INDEX": "SEL-04-01",
   "OBJECTID": 72
 },
 {
   "SITE NAME": "NAHATLATCH LAKE",
   "CU NAME": "Nahatlatch-Early Summer Timing",
   "CU TYPE": "Current",
   "FID": 43,
   "SP QUAL": "SEL",
   "POP ID": 45094,
   "GFE ID": 2442,
   "GEO FEATURE TYPE": "Lake",
   "YLAT": 50.00441549,
   "XLONG": -121.7213805,
   "FAZ_ACRO": "FRCany",
   "MAZ_ACRO": "GStr",
   "JAZ_ACRO": "FRCany+GStr",
   "CU INDEX": "SEL-05-02",
   "OBJECTID": 73
 },
 {
   "SITE NAME": "NAHATLATCH RIVER",
   "CU NAME": "Nahatlatch-Early Summer Timing",
   "CU TYPE": "Current",
   "FID": 44,
   "SP QUAL": "SEL",
   "POP ID": 47157,
   "GFE ID": 125,
   "GEO FEATURE TYPE": "Stream",
   "YLAT": 49.9779149,
   "XLONG": -121.5120321,
   "FAZ_ACRO": "FRCany",
   "MAZ_ACRO": "GStr",
   "JAZ_ACRO": "FRCany+GStr",
   "CU INDEX": "SEL-05-02",
   "OBJECTID": 74
 },
 {
   "SITE NAME": "ANDERSON LAKE SHORELINE",
   "CU NAME": "Anderson/Seton-Early Summer Timing",
   "CU TYPE": "Current",
   "FID": 45,
   "SP QUAL": "SEL",
   "POP ID": 7727,
   "GFE ID": 31897,
   "GEO FEATURE TYPE": "Lake Portion",
   "YLAT": 50.54815674,
   "XLONG": -122.4688024,
   "FAZ_ACRO": "MFR",
   "MAZ_ACRO": "GStr",
   "JAZ_ACRO": "MFR+GStr",
   "CU INDEX": "SEL-06-01",
   "OBJECTID": 75
 },
 {
   "SITE NAME": "GATES CHANNEL",
   "CU NAME": "Anderson/Seton-Early Summer Timing",
   "CU TYPE": "Current",
   "FID": 46,
   "SP QUAL": "SEL",
   "POP ID": 45102,
   "GFE ID": 2450,
   "GEO FEATURE TYPE": "Artificial Channel",
   "YLAT": 50.54794706,
   "XLONG": -122.4821128,
   "FAZ_ACRO": "MFR",
   "MAZ_ACRO": "GStr",
   "JAZ_ACRO": "MFR+GStr",
   "CU INDEX": "SEL-06-01",
   "OBJECTID": 76
 },
 {
   "SITE NAME": "GATES RIVER",
   "CU NAME": "Anderson/Seton-Early Summer Timing",
   "CU TYPE": "Current",
   "FID": 47,
   "SP QUAL": "SEL",
   "POP ID": 47211,
   "GFE ID": 132,
   "GEO FEATURE TYPE": "Stream",
   "YLAT": 50.55181255,
   "XLONG": -122.4731293,
   "FAZ_ACRO": "MFR",
   "MAZ_ACRO": "GStr",
   "JAZ_ACRO": "MFR+GStr",
   "CU INDEX": "SEL-06-01",
   "OBJECTID": 77
 },
 {
   "SITE NAME": "HAYLMORE CREEK",
   "CU NAME": "Anderson/Seton-Early Summer Timing",
   "CU TYPE": "Current",
   "FID": 48,
   "SP QUAL": "SEL",
   "POP ID": 7688,
   "GFE ID": 26805,
   "GEO FEATURE TYPE": "Stream",
   "YLAT": 50.53911862,
   "XLONG": -122.4907337,
   "FAZ_ACRO": "MFR",
   "MAZ_ACRO": "GStr",
   "JAZ_ACRO": "MFR+GStr",
   "CU INDEX": "SEL-06-01",
   "OBJECTID": 78
 },
 {
   "SITE NAME": "LOST VALLEY CREEK-LAKE SHORE",
   "CU NAME": "Anderson/Seton-Early Summer Timing",
   "CU TYPE": "Current",
   "FID": 49,
   "SP QUAL": "SEL",
   "POP ID": 7644,
   "GFE ID": 26778,
   "GEO FEATURE TYPE": "Lake Portion",
   "YLAT": 50.67298563,
   "XLONG": -122.3382323,
   "FAZ_ACRO": "MFR",
   "MAZ_ACRO": "GStr",
   "JAZ_ACRO": "MFR+GStr",
   "CU INDEX": "SEL-06-01",
   "OBJECTID": 79
 },
 {
   "SITE NAME": "SPRUCE CREEK",
   "CU NAME": "Anderson/Seton-Early Summer Timing",
   "CU TYPE": "Current",
   "FID": 50,
   "SP QUAL": "SEL",
   "POP ID": 7762,
   "GFE ID": 54280,
   "GEO FEATURE TYPE": "Stream",
   "YLAT": 50.52188757,
   "XLONG": -122.4960993,
   "FAZ_ACRO": "MFR",
   "MAZ_ACRO": "GStr",
   "JAZ_ACRO": "MFR+GStr",
   "CU INDEX": "SEL-06-01",
   "OBJECTID": 80
 },
 {
   "SITE NAME": "CHILKO LAKE-SOUTH END",
   "CU NAME": "Chilko-Early Summer Timing",
   "CU TYPE": "Current",
   "FID": 51,
   "SP QUAL": "SEL",
   "POP ID": 45081,
   "GFE ID": 2431,
   "GEO FEATURE TYPE": "Lake Portion",
   "YLAT": 51.10225386,
   "XLONG": -124.0318793,
   "FAZ_ACRO": "MFR",
   "MAZ_ACRO": "GStr",
   "JAZ_ACRO": "MFR+GStr",
   "CU INDEX": "SEL-06-02",
   "OBJECTID": 81
 },
 {
   "SITE NAME": "CHILKO LAKE-NORTH END",
   "CU NAME": "Chilko-Summer Timing",
   "CU TYPE": "Current",
   "FID": 52,
   "SP QUAL": "SEL",
   "POP ID": 45080,
   "GFE ID": 2430,
   "GEO FEATURE TYPE": "Lake Portion",
   "YLAT": 51.59773192,
   "XLONG": -124.1573668,
   "FAZ_ACRO": "MFR",
   "MAZ_ACRO": "GStr",
   "JAZ_ACRO": "MFR+GStr",
   "CU INDEX": "SEL-06-03",
   "OBJECTID": 82
 },
 {
   "SITE NAME": "CHILKO RIVER",
   "CU NAME": "Chilko-Summer Timing",
   "CU TYPE": "Current",
   "FID": 53,
   "SP QUAL": "SEL",
   "POP ID": 46843,
   "GFE ID": 286,
   "GEO FEATURE TYPE": "Stream",
   "YLAT": 52.09590138,
   "XLONG": -123.4604675,
   "FAZ_ACRO": "MFR",
   "MAZ_ACRO": "GStr",
   "JAZ_ACRO": "MFR+GStr",
   "CU INDEX": "SEL-06-03",
   "OBJECTID": 83
 },
 {
   "SITE NAME": "CHILKO SPAWNING CHANNELS",
   "CU NAME": "Chilko-Summer Timing",
   "CU TYPE": "Current",
   "FID": 54,
   "SP QUAL": "SEL",
   "POP ID": 45079,
   "GFE ID": 2429,
   "GEO FEATURE TYPE": "Artificial Channel",
   "YLAT": 51.616847,
   "XLONG": -124.1469793,
   "FAZ_ACRO": "MFR",
   "MAZ_ACRO": "GStr",
   "JAZ_ACRO": "MFR+GStr",
   "CU INDEX": "SEL-06-03",
   "OBJECTID": 84
 },
 {
   "SITE NAME": "ENDAKO RIVER",
   "CU NAME": "Francois/Fraser-Summer Timing",
   "CU TYPE": "Current",
   "FID": 55,
   "SP QUAL": "SEL",
   "POP ID": 69050,
   "GFE ID": 299,
   "GEO FEATURE TYPE": "Stream",
   "YLAT": 54.04983464,
   "XLONG": -124.9040503,
   "FAZ_ACRO": "MFR",
   "MAZ_ACRO": "GStr",
   "JAZ_ACRO": "MFR+GStr",
   "CU INDEX": "SEL-06-07",
   "OBJECTID": 85
 },
 {
   "SITE NAME": "FRANCOIS LAKE",
   "CU NAME": "Francois/Fraser-Summer Timing",
   "CU TYPE": "Current",
   "FID": 56,
   "SP QUAL": "SEL",
   "POP ID": 45806,
   "GFE ID": 386,
   "GEO FEATURE TYPE": "Lake",
   "YLAT": 54.00821315,
   "XLONG": -125.0080082,
   "FAZ_ACRO": "MFR",
   "MAZ_ACRO": "GStr",
   "JAZ_ACRO": "MFR+GStr",
   "CU INDEX": "SEL-06-07",
   "OBJECTID": 86
 },
 {
   "SITE NAME": "NITHI RIVER",
   "CU NAME": "Francois/Fraser-Summer Timing",
   "CU TYPE": "Current",
   "FID": 57,
   "SP QUAL": "SEL",
   "POP ID": 45522,
   "GFE ID": 301,
   "GEO FEATURE TYPE": "Stream",
   "YLAT": 53.97782175,
   "XLONG": -124.9845659,
   "FAZ_ACRO": "MFR",
   "MAZ_ACRO": "GStr",
   "JAZ_ACRO": "MFR+GStr",
   "CU INDEX": "SEL-06-07",
   "OBJECTID": 87
 },
 {
   "SITE NAME": "ORMOND CREEK",
   "CU NAME": "Francois/Fraser-Summer Timing",
   "CU TYPE": "Current",
   "FID": 58,
   "SP QUAL": "SEL",
   "POP ID": 69046,
   "GFE ID": 298,
   "GEO FEATURE TYPE": "Stream",
   "YLAT": 54.08838763,
   "XLONG": -124.7490804,
   "FAZ_ACRO": "MFR",
   "MAZ_ACRO": "GStr",
   "JAZ_ACRO": "MFR+GStr",
   "CU INDEX": "SEL-06-07",
   "OBJECTID": 88
 },
 {
   "SITE NAME": "STELLAKO RIVER",
   "CU NAME": "Francois/Fraser-Summer Timing",
   "CU TYPE": "Current",
   "FID": 59,
   "SP QUAL": "SEL",
   "POP ID": 46013,
   "GFE ID": 297,
   "GEO FEATURE TYPE": "Stream",
   "YLAT": 54.05564097,
   "XLONG": -124.8844677,
   "FAZ_ACRO": "MFR",
   "MAZ_ACRO": "GStr",
   "JAZ_ACRO": "MFR+GStr",
   "CU INDEX": "SEL-06-07",
   "OBJECTID": 89
 },
 {
   "SITE NAME": "SWEETNAM CREEK",
   "CU NAME": "Francois/Fraser-Summer Timing",
   "CU TYPE": "Current",
   "FID": 60,
   "SP QUAL": "SEL",
   "POP ID": 44733,
   "GFE ID": 2639,
   "GEO FEATURE TYPE": "Stream",
   "YLAT": 54.00762148,
   "XLONG": -125.0312498,
   "FAZ_ACRO": "MFR",
   "MAZ_ACRO": "GStr",
   "JAZ_ACRO": "MFR+GStr",
   "CU INDEX": "SEL-06-07",
   "OBJECTID": 90
 },
 {
   "SITE NAME": "UNCHA CREEK",
   "CU NAME": "Francois/Fraser-Summer Timing",
   "CU TYPE": "Current",
   "FID": 61,
   "SP QUAL": "SEL",
   "POP ID": 45523,
   "GFE ID": 302,
   "GEO FEATURE TYPE": "Stream",
   "YLAT": 53.97406064,
   "XLONG": -125.510557,
   "FAZ_ACRO": "MFR",
   "MAZ_ACRO": "GStr",
   "JAZ_ACRO": "MFR+GStr",
   "CU INDEX": "SEL-06-07",
   "OBJECTID": 91
 },
 {
   "SITE NAME": "ABBOTT CREEK",
   "CU NAME": "Quesnel-Summer Timing",
   "CU TYPE": "Current",
   "FID": 62,
   "SP QUAL": "SEL",
   "POP ID": 45054,
   "GFE ID": 2403,
   "GEO FEATURE TYPE": "Stream",
   "YLAT": 52.54260358,
   "XLONG": -121.1779389,
   "FAZ_ACRO": "MFR",
   "MAZ_ACRO": "GStr",
   "JAZ_ACRO": "MFR+GStr",
   "CU INDEX": "SEL-06-10",
   "OBJECTID": 92
 },
 {
   "SITE NAME": "BAXTER BEACH",
   "CU NAME": "Quesnel-Summer Timing",
   "CU TYPE": "Current",
   "FID": 63,
   "SP QUAL": "SEL",
   "POP ID": 3363,
   "GFE ID": 11513,
   "GEO FEATURE TYPE": "Lake Portion",
   "YLAT": 52.72205643,
   "XLONG": -120.8599504,
   "FAZ_ACRO": "MFR",
   "MAZ_ACRO": "GStr",
   "JAZ_ACRO": "MFR+GStr",
   "CU INDEX": "SEL-06-10",
   "OBJECTID": 93
 },
 {
   "SITE NAME": "BEAR BEACH-LAKE SHORE",
   "CU NAME": "Quesnel-Summer Timing",
   "CU TYPE": "Current",
   "FID": 64,
   "SP QUAL": "SEL",
   "POP ID": 3364,
   "GFE ID": 11514,
   "GEO FEATURE TYPE": "Lake Portion",
   "YLAT": 52.72205643,
   "XLONG": -120.8599504,
   "FAZ_ACRO": "MFR",
   "MAZ_ACRO": "GStr",
   "JAZ_ACRO": "MFR+GStr",
   "CU INDEX": "SEL-06-10",
   "OBJECTID": 94
 },
 {
   "SITE NAME": "BETTY FRANK'S-LAKE SHORE",
   "CU NAME": "Quesnel-Summer Timing",
   "CU TYPE": "Current",
   "FID": 65,
   "SP QUAL": "SEL",
   "POP ID": 3365,
   "GFE ID": 11515,
   "GEO FEATURE TYPE": "Lake Portion",
   "YLAT": 52.72205643,
   "XLONG": -120.8599504,
   "FAZ_ACRO": "MFR",
   "MAZ_ACRO": "GStr",
   "JAZ_ACRO": "MFR+GStr",
   "CU INDEX": "SEL-06-10",
   "OBJECTID": 95
 },
 {
   "SITE NAME": "BIG SLIDE-LAKE SHORE",
   "CU NAME": "Quesnel-Summer Timing",
   "CU TYPE": "Current",
   "FID": 66,
   "SP QUAL": "SEL",
   "POP ID": 3342,
   "GFE ID": 11492,
   "GEO FEATURE TYPE": "Lake Portion",
   "YLAT": 52.60429232,
   "XLONG": -120.4943988,
   "FAZ_ACRO": "MFR",
   "MAZ_ACRO": "GStr",
   "JAZ_ACRO": "MFR+GStr",
   "CU INDEX": "SEL-06-10",
   "OBJECTID": 96
 },
 {
   "SITE NAME": "BIG SLIDE-LAKE SHORE-1KM W",
   "CU NAME": "Quesnel-Summer Timing",
   "CU TYPE": "Current",
   "FID": 67,
   "SP QUAL": "SEL",
   "POP ID": 3343,
   "GFE ID": 11493,
   "GEO FEATURE TYPE": "Lake Portion",
   "YLAT": 52.520373,
   "XLONG": -120.938721,
   "FAZ_ACRO": "MFR",
   "MAZ_ACRO": "GStr",
   "JAZ_ACRO": "MFR+GStr",
   "CU INDEX": "SEL-06-10",
   "OBJECTID": 97
 },
 {
   "SITE NAME": "BILL MINER CREEK",
   "CU NAME": "Quesnel-Summer Timing",
   "CU TYPE": "Current",
   "FID": 68,
   "SP QUAL": "SEL",
   "POP ID": 45070,
   "GFE ID": 2419,
   "GEO FEATURE TYPE": "Stream",
   "YLAT": 52.58170111,
   "XLONG": -120.5620894,
   "FAZ_ACRO": "MFR",
   "MAZ_ACRO": "GStr",
   "JAZ_ACRO": "MFR+GStr",
   "CU INDEX": "SEL-06-10",
   "OBJECTID": 98
 },
 {
   "SITE NAME": "BILL MINER CREEK-LAKE SHORE",
   "CU NAME": "Quesnel-Summer Timing",
   "CU TYPE": "Current",
   "FID": 69,
   "SP QUAL": "SEL",
   "POP ID": 3344,
   "GFE ID": 11494,
   "GEO FEATURE TYPE": "Lake Portion",
   "YLAT": 52.58192397,
   "XLONG": -120.5569187,
   "FAZ_ACRO": "MFR",
   "MAZ_ACRO": "GStr",
   "JAZ_ACRO": "MFR+GStr",
   "CU INDEX": "SEL-06-10",
   "OBJECTID": 99
 },
 {
   "SITE NAME": "BILL MINER CREEK-LAKE SHORE-3KM W",
   "CU NAME": "Quesnel-Summer Timing",
   "CU TYPE": "Current",
   "FID": 70,
   "SP QUAL": "SEL",
   "POP ID": 3345,
   "GFE ID": 11495,
   "GEO FEATURE TYPE": "Lake Portion",
   "YLAT": 52.57279818,
   "XLONG": -120.6088624,
   "FAZ_ACRO": "MFR",
   "MAZ_ACRO": "GStr",
   "JAZ_ACRO": "MFR+GStr",
   "CU INDEX": "SEL-06-10",
   "OBJECTID": 100
 },
 {
   "SITE NAME": "BLUE LEAD CREEK",
   "CU NAME": "Quesnel-Summer Timing",
   "CU TYPE": "Current",
   "FID": 71,
   "SP QUAL": "SEL",
   "POP ID": 45073,
   "GFE ID": 2422,
   "GEO FEATURE TYPE": "Stream",
   "YLAT": 52.61570352,
   "XLONG": -120.3838655,
   "FAZ_ACRO": "MFR",
   "MAZ_ACRO": "GStr",
   "JAZ_ACRO": "MFR+GStr",
   "CU INDEX": "SEL-06-10",
   "OBJECTID": 101
 },
 {
   "SITE NAME": "BLUE LEAD CREEK-LAKE SHORE",
   "CU NAME": "Quesnel-Summer Timing",
   "CU TYPE": "Current",
   "FID": 72,
   "SP QUAL": "SEL",
   "POP ID": 3346,
   "GFE ID": 11496,
   "GEO FEATURE TYPE": "Lake Portion",
   "YLAT": 52.615223,
   "XLONG": -120.3815241,
   "FAZ_ACRO": "MFR",
   "MAZ_ACRO": "GStr",
   "JAZ_ACRO": "MFR+GStr",
   "CU INDEX": "SEL-06-10",
   "OBJECTID": 102
 },
 {
   "SITE NAME": "BOULDERY CREEK",
   "CU NAME": "Quesnel-Summer Timing",
   "CU TYPE": "Current",
   "FID": 73,
   "SP QUAL": "SEL",
   "POP ID": 45066,
   "GFE ID": 2415,
   "GEO FEATURE TYPE": "Stream",
   "YLAT": 52.51046296,
   "XLONG": -120.6877112,
   "FAZ_ACRO": "MFR",
   "MAZ_ACRO": "GStr",
   "JAZ_ACRO": "MFR+GStr",
   "CU INDEX": "SEL-06-10",
   "OBJECTID": 103
 },
 {
   "SITE NAME": "BOULDERY CREEK-E-LAKE SHORE",
   "CU NAME": "Quesnel-Summer Timing",
   "CU TYPE": "Current",
   "FID": 74,
   "SP QUAL": "SEL",
   "POP ID": 3348,
   "GFE ID": 11498,
   "GEO FEATURE TYPE": "Lake Portion",
   "YLAT": 52.51103511,
   "XLONG": -120.6878281,
   "FAZ_ACRO": "MFR",
   "MAZ_ACRO": "GStr",
   "JAZ_ACRO": "MFR+GStr",
   "CU INDEX": "SEL-06-10",
   "OBJECTID": 104
 },
 {
   "SITE NAME": "BOULDERY CREEK-LAKE SHORE",
   "CU NAME": "Quesnel-Summer Timing",
   "CU TYPE": "Current",
   "FID": 75,
   "SP QUAL": "SEL",
   "POP ID": 3347,
   "GFE ID": 11497,
   "GEO FEATURE TYPE": "Lake Portion",
   "YLAT": 52.51019936,
   "XLONG": -120.689054,
   "FAZ_ACRO": "MFR",
   "MAZ_ACRO": "GStr",
   "JAZ_ACRO": "MFR+GStr",
   "CU INDEX": "SEL-06-10",
   "OBJECTID": 105
 },
 {
   "SITE NAME": "BOWLING CREEK",
   "CU NAME": "Quesnel-Summer Timing",
   "CU TYPE": "Current",
   "FID": 76,
   "SP QUAL": "SEL",
   "POP ID": 61010,
   "GFE ID": 7713,
   "GEO FEATURE TYPE": "Stream",
   "YLAT": 52.72205643,
   "XLONG": -120.8599504,
   "FAZ_ACRO": "MFR",
   "MAZ_ACRO": "GStr",
   "JAZ_ACRO": "MFR+GStr",
   "CU INDEX": "SEL-06-10",
   "OBJECTID": 106
 },
 {
   "SITE NAME": "BOWLING CREEK-LAKE SHORE",
   "CU NAME": "Quesnel-Summer Timing",
   "CU TYPE": "Current",
   "FID": 77,
   "SP QUAL": "SEL",
   "POP ID": 61078,
   "GFE ID": 5007713,
   "GEO FEATURE TYPE": "Lake Portion",
   "YLAT": 52.72267434,
   "XLONG": -120.8593811,
   "FAZ_ACRO": "MFR",
   "MAZ_ACRO": "GStr",
   "JAZ_ACRO": "MFR+GStr",
   "CU INDEX": "SEL-06-10",
   "OBJECTID": 107
 },
 {
   "SITE NAME": "BOWLING POINT",
   "CU NAME": "Quesnel-Summer Timing",
   "CU TYPE": "Current",
   "FID": 78,
   "SP QUAL": "SEL",
   "POP ID": 3366,
   "GFE ID": 11516,
   "GEO FEATURE TYPE": "Lake Portion",
   "YLAT": 52.72205643,
   "XLONG": -120.8599504,
   "FAZ_ACRO": "MFR",
   "MAZ_ACRO": "GStr",
   "JAZ_ACRO": "MFR+GStr",
   "CU INDEX": "SEL-06-10",
   "OBJECTID": 108
 },
 {
   "SITE NAME": "BOWLING POINT TO GOOSE POINT",
   "CU NAME": "Quesnel-Summer Timing",
   "CU TYPE": "Current",
   "FID": 79,
   "SP QUAL": "SEL",
   "POP ID": 3382,
   "GFE ID": 11532,
   "GEO FEATURE TYPE": "Lake Portion",
   "YLAT": 52.72985497,
   "XLONG": -120.851015,
   "FAZ_ACRO": "MFR",
   "MAZ_ACRO": "GStr",
   "JAZ_ACRO": "MFR+GStr",
   "CU INDEX": "SEL-06-10",
   "OBJECTID": 109
 },
 {
   "SITE NAME": "BUCKINGHAM CREEK/MFR",
   "CU NAME": "Quesnel-Summer Timing",
   "CU TYPE": "Current",
   "FID": 80,
   "SP QUAL": "SEL",
   "POP ID": 45067,
   "GFE ID": 2416,
   "GEO FEATURE TYPE": "Stream",
   "YLAT": 52.55247852,
   "XLONG": -120.6938616,
   "FAZ_ACRO": "MFR",
   "MAZ_ACRO": "GStr",
   "JAZ_ACRO": "MFR+GStr",
   "CU INDEX": "SEL-06-10",
   "OBJECTID": 110
 },
 {
   "SITE NAME": "CAMERON CREEK/MFR",
   "CU NAME": "Quesnel-Summer Timing",
   "CU TYPE": "Current",
   "FID": 81,
   "SP QUAL": "SEL",
   "POP ID": 45061,
   "GFE ID": 2410,
   "GEO FEATURE TYPE": "Stream",
   "YLAT": 52.82644752,
   "XLONG": -120.8090557,
   "FAZ_ACRO": "MFR",
   "MAZ_ACRO": "GStr",
   "JAZ_ACRO": "MFR+GStr",
   "CU INDEX": "SEL-06-10",
   "OBJECTID": 111
 },
 {
   "SITE NAME": "DECEPTION POINT",
   "CU NAME": "Quesnel-Summer Timing",
   "CU TYPE": "Current",
   "FID": 82,
   "SP QUAL": "SEL",
   "POP ID": 45077,
   "GFE ID": 2426,
   "GEO FEATURE TYPE": "Lake Portion",
   "YLAT": 52.65333333,
   "XLONG": -120.9527778,
   "FAZ_ACRO": "MFR",
   "MAZ_ACRO": "GStr",
   "JAZ_ACRO": "MFR+GStr",
   "CU INDEX": "SEL-06-10",
   "OBJECTID": 112
 },
 {
   "SITE NAME": "DEVOE CREEK",
   "CU NAME": "Quesnel-Summer Timing",
   "CU TYPE": "Current",
   "FID": 83,
   "SP QUAL": "SEL",
   "POP ID": 45057,
   "GFE ID": 2406,
   "GEO FEATURE TYPE": "Stream",
   "YLAT": 52.64785974,
   "XLONG": -120.9926854,
   "FAZ_ACRO": "MFR",
   "MAZ_ACRO": "GStr",
   "JAZ_ACRO": "MFR+GStr",
   "CU INDEX": "SEL-06-10",
   "OBJECTID": 113
 },
 {
   "SITE NAME": "DEVOE CREEK-LAKE SHORE",
   "CU NAME": "Quesnel-Summer Timing",
   "CU TYPE": "Current",
   "FID": 84,
   "SP QUAL": "SEL",
   "POP ID": 3367,
   "GFE ID": 11517,
   "GEO FEATURE TYPE": "Lake Portion",
   "YLAT": 52.64880367,
   "XLONG": -120.9907587,
   "FAZ_ACRO": "MFR",
   "MAZ_ACRO": "GStr",
   "JAZ_ACRO": "MFR+GStr",
   "CU INDEX": "SEL-06-10",
   "OBJECTID": 114
 },
 {
   "SITE NAME": "DOUBLE T-LAKE SHORE",
   "CU NAME": "Quesnel-Summer Timing",
   "CU TYPE": "Current",
   "FID": 85,
   "SP QUAL": "SEL",
   "POP ID": 3349,
   "GFE ID": 11499,
   "GEO FEATURE TYPE": "Lake Portion",
   "YLAT": 52.502517,
   "XLONG": -120.985979,
   "FAZ_ACRO": "MFR",
   "MAZ_ACRO": "GStr",
   "JAZ_ACRO": "MFR+GStr",
   "CU INDEX": "SEL-06-10",
   "OBJECTID": 115
 },
 {
   "SITE NAME": "ELYSIA SHORE",
   "CU NAME": "Quesnel-Summer Timing",
   "CU TYPE": "Current",
   "FID": 86,
   "SP QUAL": "SEL",
   "POP ID": 3350,
   "GFE ID": 11500,
   "GEO FEATURE TYPE": "Lake Portion",
   "YLAT": 52.51657269,
   "XLONG": -121.0469811,
   "FAZ_ACRO": "MFR",
   "MAZ_ACRO": "GStr",
   "JAZ_ACRO": "MFR+GStr",
   "CU INDEX": "SEL-06-10",
   "OBJECTID": 116
 },
 {
   "SITE NAME": "ELYSIA SHORE-1KM W",
   "CU NAME": "Quesnel-Summer Timing",
   "CU TYPE": "Current",
   "FID": 87,
   "SP QUAL": "SEL",
   "POP ID": 3413,
   "GFE ID": 11561,
   "GEO FEATURE TYPE": "Lake Portion",
   "YLAT": 52.51668336,
   "XLONG": -121.0472747,
   "FAZ_ACRO": "MFR",
   "MAZ_ACRO": "GStr",
   "JAZ_ACRO": "MFR+GStr",
   "CU INDEX": "SEL-06-10",
   "OBJECTID": 117
 },
 {
   "SITE NAME": "FRANKS CREEK",
   "CU NAME": "Quesnel-Summer Timing",
   "CU TYPE": "Current",
   "FID": 88,
   "SP QUAL": "SEL",
   "POP ID": 45068,
   "GFE ID": 2417,
   "GEO FEATURE TYPE": "Stream",
   "YLAT": 52.56589551,
   "XLONG": -120.6799283,
   "FAZ_ACRO": "MFR",
   "MAZ_ACRO": "GStr",
   "JAZ_ACRO": "MFR+GStr",
   "CU INDEX": "SEL-06-10",
   "OBJECTID": 118
 },
 {
   "SITE NAME": "FRANKS CREEK-LAKE SHORE",
   "CU NAME": "Quesnel-Summer Timing",
   "CU TYPE": "Current",
   "FID": 89,
   "SP QUAL": "SEL",
   "POP ID": 3351,
   "GFE ID": 11501,
   "GEO FEATURE TYPE": "Lake Portion",
   "YLAT": 52.56697045,
   "XLONG": -120.6766646,
   "FAZ_ACRO": "MFR",
   "MAZ_ACRO": "GStr",
   "JAZ_ACRO": "MFR+GStr",
   "CU INDEX": "SEL-06-10",
   "OBJECTID": 119
 },
 {
   "SITE NAME": "GOOSE CREEK/MFR",
   "CU NAME": "Quesnel-Summer Timing",
   "CU TYPE": "Current",
   "FID": 90,
   "SP QUAL": "SEL",
   "POP ID": 3078,
   "GFE ID": 2754,
   "GEO FEATURE TYPE": "Stream",
   "YLAT": 52.74890615,
   "XLONG": -120.8353937,
   "FAZ_ACRO": "MFR",
   "MAZ_ACRO": "GStr",
   "JAZ_ACRO": "MFR+GStr",
   "CU INDEX": "SEL-06-10",
   "OBJECTID": 120
 },
 {
   "SITE NAME": "GOOSE CREEK-LAKE SHORE 0.8KM S",
   "CU NAME": "Quesnel-Summer Timing",
   "CU TYPE": "Current",
   "FID": 91,
   "SP QUAL": "SEL",
   "POP ID": 3369,
   "GFE ID": 11519,
   "GEO FEATURE TYPE": "Lake Portion",
   "YLAT": 52.74754944,
   "XLONG": -120.8361346,
   "FAZ_ACRO": "MFR",
   "MAZ_ACRO": "GStr",
   "JAZ_ACRO": "MFR+GStr",
   "CU INDEX": "SEL-06-10",
   "OBJECTID": 121
 },
 {
   "SITE NAME": "GOOSE CREEK-S-LAKE SHORE",
   "CU NAME": "Quesnel-Summer Timing",
   "CU TYPE": "Current",
   "FID": 92,
   "SP QUAL": "SEL",
   "POP ID": 61079,
   "GFE ID": 23673,
   "GEO FEATURE TYPE": "Lake Portion",
   "YLAT": 52.75182898,
   "XLONG": -120.836885,
   "FAZ_ACRO": "MFR",
   "MAZ_ACRO": "GStr",
   "JAZ_ACRO": "MFR+GStr",
   "CU INDEX": "SEL-06-10",
   "OBJECTID": 122
 },
 {
   "SITE NAME": "GOOSE POINT-LAKE SHORE",
   "CU NAME": "Quesnel-Summer Timing",
   "CU TYPE": "Current",
   "FID": 93,
   "SP QUAL": "SEL",
   "POP ID": 3368,
   "GFE ID": 11518,
   "GEO FEATURE TYPE": "Lake Portion",
   "YLAT": 52.75378888,
   "XLONG": -120.8364488,
   "FAZ_ACRO": "MFR",
   "MAZ_ACRO": "GStr",
   "JAZ_ACRO": "MFR+GStr",
   "CU INDEX": "SEL-06-10",
   "OBJECTID": 123
 },
 {
   "SITE NAME": "GOOSE POINT-LAKE SHORE-5 KM S",
   "CU NAME": "Quesnel-Summer Timing",
   "CU TYPE": "Current",
   "FID": 94,
   "SP QUAL": "SEL",
   "POP ID": 3370,
   "GFE ID": 11520,
   "GEO FEATURE TYPE": "Lake Portion",
   "YLAT": 52.75019071,
   "XLONG": -120.837015,
   "FAZ_ACRO": "MFR",
   "MAZ_ACRO": "GStr",
   "JAZ_ACRO": "MFR+GStr",
   "CU INDEX": "SEL-06-10",
   "OBJECTID": 124
 },
 {
   "SITE NAME": "GRAIN CREEK",
   "CU NAME": "Quesnel-Summer Timing",
   "CU TYPE": "Current",
   "FID": 95,
   "SP QUAL": "SEL",
   "POP ID": 45055,
   "GFE ID": 2404,
   "GEO FEATURE TYPE": "Stream",
   "YLAT": 52.60138297,
   "XLONG": -121.0200541,
   "FAZ_ACRO": "MFR",
   "MAZ_ACRO": "GStr",
   "JAZ_ACRO": "MFR+GStr",
   "CU INDEX": "SEL-06-10",
   "OBJECTID": 125
 },
 {
   "SITE NAME": "GRAIN CREEK-LAKE SHORE",
   "CU NAME": "Quesnel-Summer Timing",
   "CU TYPE": "Current",
   "FID": 96,
   "SP QUAL": "SEL",
   "POP ID": 3371,
   "GFE ID": 11521,
   "GEO FEATURE TYPE": "Lake Portion",
   "YLAT": 52.60208859,
   "XLONG": -121.019542,
   "FAZ_ACRO": "MFR",
   "MAZ_ACRO": "GStr",
   "JAZ_ACRO": "MFR+GStr",
   "CU INDEX": "SEL-06-10",
   "OBJECTID": 126
 },
 {
   "SITE NAME": "HAZELTINE CREEK",
   "CU NAME": "Quesnel-Summer Timing",
   "CU TYPE": "Current",
   "FID": 97,
   "SP QUAL": "SEL",
   "POP ID": 45039,
   "GFE ID": 2397,
   "GEO FEATURE TYPE": "Stream",
   "YLAT": 52.50002905,
   "XLONG": -121.5033653,
   "FAZ_ACRO": "MFR",
   "MAZ_ACRO": "GStr",
   "JAZ_ACRO": "MFR+GStr",
   "CU INDEX": "SEL-06-10",
   "OBJECTID": 127
 },
 {
   "SITE NAME": "HORSEFLY CHANNEL",
   "CU NAME": "Quesnel-Summer Timing",
   "CU TYPE": "Current",
   "FID": 98,
   "SP QUAL": "SEL",
   "POP ID": 45100,
   "GFE ID": 2448,
   "GEO FEATURE TYPE": "Artificial Channel",
   "YLAT": 52.34,
   "XLONG": -121.4014,
   "FAZ_ACRO": "MFR",
   "MAZ_ACRO": "GStr",
   "JAZ_ACRO": "MFR+GStr",
   "CU INDEX": "SEL-06-10",
   "OBJECTID": 128
 },
 {
   "SITE NAME": "HORSEFLY LAKE",
   "CU NAME": "Quesnel-Summer Timing",
   "CU TYPE": "Current",
   "FID": 99,
   "SP QUAL": "SEL",
   "POP ID": 45101,
   "GFE ID": 2449,
   "GEO FEATURE TYPE": "Lake",
   "YLAT": 52.35941766,
   "XLONG": -121.3168397,
   "FAZ_ACRO": "MFR",
   "MAZ_ACRO": "GStr",
   "JAZ_ACRO": "MFR+GStr",
   "CU INDEX": "SEL-06-10",
   "OBJECTID": 129
 },
 {
   "SITE NAME": "HORSEFLY RIVER",
   "CU NAME": "Quesnel-Summer Timing",
   "CU TYPE": "Current",
   "FID": 100,
   "SP QUAL": "SEL",
   "POP ID": 46893,
   "GFE ID": 291,
   "GEO FEATURE TYPE": "Stream",
   "YLAT": 52.46540443,
   "XLONG": -121.3887587,
   "FAZ_ACRO": "MFR",
   "MAZ_ACRO": "GStr",
   "JAZ_ACRO": "MFR+GStr",
   "CU INDEX": "SEL-06-10",
   "OBJECTID": 130
 },
 {
   "SITE NAME": "HORSEFLY RIVER-UPPER",
   "CU NAME": "Quesnel-Summer Timing",
   "CU TYPE": "Current",
   "FID": 101,
   "SP QUAL": "SEL",
   "POP ID": 45097,
   "GFE ID": 2445,
   "GEO FEATURE TYPE": "Stream segment",
   "YLAT": 52.34135176,
   "XLONG": -121.4036967,
   "FAZ_ACRO": "MFR",
   "MAZ_ACRO": "GStr",
   "JAZ_ACRO": "MFR+GStr",
   "CU INDEX": "SEL-06-10",
   "OBJECTID": 131
 },
 {
   "SITE NAME": "HURRICANE POINT SHORE",
   "CU NAME": "Quesnel-Summer Timing",
   "CU TYPE": "Current",
   "FID": 102,
   "SP QUAL": "SEL",
   "POP ID": 3352,
   "GFE ID": 11502,
   "GEO FEATURE TYPE": "Lake Portion",
   "YLAT": 52.544874,
   "XLONG": -121.02483,
   "FAZ_ACRO": "MFR",
   "MAZ_ACRO": "GStr",
   "JAZ_ACRO": "MFR+GStr",
   "CU INDEX": "SEL-06-10",
   "OBJECTID": 132
 },
 {
   "SITE NAME": "ISAIAH CREEK",
   "CU NAME": "Quesnel-Summer Timing",
   "CU TYPE": "Current",
   "FID": 103,
   "SP QUAL": "SEL",
   "POP ID": 45064,
   "GFE ID": 2413,
   "GEO FEATURE TYPE": "Stream",
   "YLAT": 52.65278849,
   "XLONG": -120.9514986,
   "FAZ_ACRO": "MFR",
   "MAZ_ACRO": "GStr",
   "JAZ_ACRO": "MFR+GStr",
   "CU INDEX": "SEL-06-10",
   "OBJECTID": 133
 },
 {
   "SITE NAME": "JUNCTION CREEK",
   "CU NAME": "Quesnel-Summer Timing",
   "CU TYPE": "Current",
   "FID": 104,
   "SP QUAL": "SEL",
   "POP ID": 3079,
   "GFE ID": 2755,
   "GEO FEATURE TYPE": "Stream",
   "YLAT": 52.56041038,
   "XLONG": -120.9933749,
   "FAZ_ACRO": "MFR",
   "MAZ_ACRO": "GStr",
   "JAZ_ACRO": "MFR+GStr",
   "CU INDEX": "SEL-06-10",
   "OBJECTID": 134
 },
 {
   "SITE NAME": "JUNCTION CREEK-LAKE SHORE",
   "CU NAME": "Quesnel-Summer Timing",
   "CU TYPE": "Current",
   "FID": 105,
   "SP QUAL": "SEL",
   "POP ID": 3353,
   "GFE ID": 11503,
   "GEO FEATURE TYPE": "Lake Portion",
   "YLAT": 52.56330782,
   "XLONG": -120.9985808,
   "FAZ_ACRO": "MFR",
   "MAZ_ACRO": "GStr",
   "JAZ_ACRO": "MFR+GStr",
   "CU INDEX": "SEL-06-10",
   "OBJECTID": 135
 },
 {
   "SITE NAME": "KILLDOG CREEK",
   "CU NAME": "Quesnel-Summer Timing",
   "CU TYPE": "Current",
   "FID": 106,
   "SP QUAL": "SEL",
   "POP ID": 45072,
   "GFE ID": 2421,
   "GEO FEATURE TYPE": "Stream",
   "YLAT": 52.59090242,
   "XLONG": -120.41019,
   "FAZ_ACRO": "MFR",
   "MAZ_ACRO": "GStr",
   "JAZ_ACRO": "MFR+GStr",
   "CU INDEX": "SEL-06-10",
   "OBJECTID": 136
 },
 {
   "SITE NAME": "KILLDOG CREEK-LAKE SHORE",
   "CU NAME": "Quesnel-Summer Timing",
   "CU TYPE": "Current",
   "FID": 107,
   "SP QUAL": "SEL",
   "POP ID": 3354,
   "GFE ID": 11504,
   "GEO FEATURE TYPE": "Lake Portion",
   "YLAT": 52.59357088,
   "XLONG": -120.4065321,
   "FAZ_ACRO": "MFR",
   "MAZ_ACRO": "GStr",
   "JAZ_ACRO": "MFR+GStr",
   "CU INDEX": "SEL-06-10",
   "OBJECTID": 137
 },
 {
   "SITE NAME": "LESTER SHORE",
   "CU NAME": "Quesnel-Summer Timing",
   "CU TYPE": "Current",
   "FID": 108,
   "SP QUAL": "SEL",
   "POP ID": 3372,
   "GFE ID": 11522,
   "GEO FEATURE TYPE": "Lake Portion",
   "YLAT": 52.72773681,
   "XLONG": -120.8524594,
   "FAZ_ACRO": "MFR",
   "MAZ_ACRO": "GStr",
   "JAZ_ACRO": "MFR+GStr",
   "CU INDEX": "SEL-06-10",
   "OBJECTID": 138
 },
 {
   "SITE NAME": "LIMESTONE CREEK/MFR",
   "CU NAME": "Quesnel-Summer Timing",
   "CU TYPE": "Current",
   "FID": 109,
   "SP QUAL": "SEL",
   "POP ID": 3262,
   "GFE ID": 2834,
   "GEO FEATURE TYPE": "Stream",
   "YLAT": 52.73458526,
   "XLONG": -120.8826813,
   "FAZ_ACRO": "MFR",
   "MAZ_ACRO": "GStr",
   "JAZ_ACRO": "MFR+GStr",
   "CU INDEX": "SEL-06-10",
   "OBJECTID": 139
 },
 {
   "SITE NAME": "LIMESTONE PIONT-LAKE SHORE",
   "CU NAME": "Quesnel-Summer Timing",
   "CU TYPE": "Current",
   "FID": 110,
   "SP QUAL": "SEL",
   "POP ID": 3373,
   "GFE ID": 11524,
   "GEO FEATURE TYPE": "Lake Portion",
   "YLAT": 52.73801707,
   "XLONG": -120.8638702,
   "FAZ_ACRO": "MFR",
   "MAZ_ACRO": "GStr",
   "JAZ_ACRO": "MFR+GStr",
   "CU INDEX": "SEL-06-10",
   "OBJECTID": 140
 },
 {
   "SITE NAME": "LIMESTONE PIONT-LAKE SHORE-S",
   "CU NAME": "Quesnel-Summer Timing",
   "CU TYPE": "Current",
   "FID": 111,
   "SP QUAL": "SEL",
   "POP ID": 3374,
   "GFE ID": 11523,
   "GEO FEATURE TYPE": "Lake Portion",
   "YLAT": 52.73751495,
   "XLONG": -120.8700546,
   "FAZ_ACRO": "MFR",
   "MAZ_ACRO": "GStr",
   "JAZ_ACRO": "MFR+GStr",
   "CU INDEX": "SEL-06-10",
   "OBJECTID": 141
 },
 {
   "SITE NAME": "LITTLE HORSEFLY RIVER",
   "CU NAME": "Quesnel-Summer Timing",
   "CU TYPE": "Current",
   "FID": 112,
   "SP QUAL": "SEL",
   "POP ID": 46903,
   "GFE ID": 292,
   "GEO FEATURE TYPE": "Stream",
   "YLAT": 52.36180586,
   "XLONG": -121.3968828,
   "FAZ_ACRO": "MFR",
   "MAZ_ACRO": "GStr",
   "JAZ_ACRO": "MFR+GStr",
   "CU INDEX": "SEL-06-10",
   "OBJECTID": 142
 },
 {
   "SITE NAME": "LOGGER LANDING",
   "CU NAME": "Quesnel-Summer Timing",
   "CU TYPE": "Current",
   "FID": 113,
   "SP QUAL": "SEL",
   "POP ID": 3375,
   "GFE ID": 11525,
   "GEO FEATURE TYPE": "Lake Portion",
   "YLAT": 52.73502954,
   "XLONG": -120.8428468,
   "FAZ_ACRO": "MFR",
   "MAZ_ACRO": "GStr",
   "JAZ_ACRO": "MFR+GStr",
   "CU INDEX": "SEL-06-10",
   "OBJECTID": 143
 },
 {
   "SITE NAME": "LONG CREEK",
   "CU NAME": "Quesnel-Summer Timing",
   "CU TYPE": "Current",
   "FID": 114,
   "SP QUAL": "SEL",
   "POP ID": 45058,
   "GFE ID": 2407,
   "GEO FEATURE TYPE": "Stream",
   "YLAT": 52.66742351,
   "XLONG": -120.9628713,
   "FAZ_ACRO": "MFR",
   "MAZ_ACRO": "GStr",
   "JAZ_ACRO": "MFR+GStr",
   "CU INDEX": "SEL-06-10",
   "OBJECTID": 144
 },
 {
   "SITE NAME": "LONG CREEK-LAKE SHORE",
   "CU NAME": "Quesnel-Summer Timing",
   "CU TYPE": "Current",
   "FID": 115,
   "SP QUAL": "SEL",
   "POP ID": 3376,
   "GFE ID": 11526,
   "GEO FEATURE TYPE": "Lake Portion",
   "YLAT": 52.67150157,
   "XLONG": -120.9550883,
   "FAZ_ACRO": "MFR",
   "MAZ_ACRO": "GStr",
   "JAZ_ACRO": "MFR+GStr",
   "CU INDEX": "SEL-06-10",
   "OBJECTID": 145
 },
 {
   "SITE NAME": "LYNX CREEK",
   "CU NAME": "Quesnel-Summer Timing",
   "CU TYPE": "Current",
   "FID": 116,
   "SP QUAL": "SEL",
   "POP ID": 45069,
   "GFE ID": 2418,
   "GEO FEATURE TYPE": "Stream",
   "YLAT": 52.58720542,
   "XLONG": -120.6562168,
   "FAZ_ACRO": "MFR",
   "MAZ_ACRO": "GStr",
   "JAZ_ACRO": "MFR+GStr",
   "CU INDEX": "SEL-06-10",
   "OBJECTID": 146
 },
 {
   "SITE NAME": "LYNX CREEK-LAKE SHORE",
   "CU NAME": "Quesnel-Summer Timing",
   "CU TYPE": "Current",
   "FID": 117,
   "SP QUAL": "SEL",
   "POP ID": 3355,
   "GFE ID": 11505,
   "GEO FEATURE TYPE": "Lake Portion",
   "YLAT": 52.58400806,
   "XLONG": -120.64216,
   "FAZ_ACRO": "MFR",
   "MAZ_ACRO": "GStr",
   "JAZ_ACRO": "MFR+GStr",
   "CU INDEX": "SEL-06-10",
   "OBJECTID": 147
 },
 {
   "SITE NAME": "MARTEN CREEK",
   "CU NAME": "Quesnel-Summer Timing",
   "CU TYPE": "Current",
   "FID": 118,
   "SP QUAL": "SEL",
   "POP ID": 45059,
   "GFE ID": 2408,
   "GEO FEATURE TYPE": "Stream",
   "YLAT": 52.71901947,
   "XLONG": -120.9026506,
   "FAZ_ACRO": "MFR",
   "MAZ_ACRO": "GStr",
   "JAZ_ACRO": "MFR+GStr",
   "CU INDEX": "SEL-06-10",
   "OBJECTID": 148
 },
 {
   "SITE NAME": "MARTEN CREEK-LAKE SHORE",
   "CU NAME": "Quesnel-Summer Timing",
   "CU TYPE": "Current",
   "FID": 119,
   "SP QUAL": "SEL",
   "POP ID": 3377,
   "GFE ID": 11527,
   "GEO FEATURE TYPE": "Lake Portion",
   "YLAT": 52.71980452,
   "XLONG": -120.8989546,
   "FAZ_ACRO": "MFR",
   "MAZ_ACRO": "GStr",
   "JAZ_ACRO": "MFR+GStr",
   "CU INDEX": "SEL-06-10",
   "OBJECTID": 149
 },
 {
   "SITE NAME": "MCKINLEY CREEK",
   "CU NAME": "Quesnel-Summer Timing",
   "CU TYPE": "Current",
   "FID": 120,
   "SP QUAL": "SEL",
   "POP ID": 45043,
   "GFE ID": 2401,
   "GEO FEATURE TYPE": "Stream",
   "YLAT": 52.28894348,
   "XLONG": -121.0693469,
   "FAZ_ACRO": "MFR",
   "MAZ_ACRO": "GStr",
   "JAZ_ACRO": "MFR+GStr",
   "CU INDEX": "SEL-06-10",
   "OBJECTID": 150
 },
 {
   "SITE NAME": "MCKINLEY CREEK-UPPER",
   "CU NAME": "Quesnel-Summer Timing",
   "CU TYPE": "Current",
   "FID": 121,
   "SP QUAL": "SEL",
   "POP ID": 45098,
   "GFE ID": 2446,
   "GEO FEATURE TYPE": "Stream segment",
   "YLAT": 52.26198851,
   "XLONG": -120.9029853,
   "FAZ_ACRO": "MFR",
   "MAZ_ACRO": "GStr",
   "JAZ_ACRO": "MFR+GStr",
   "CU INDEX": "SEL-06-10",
   "OBJECTID": 151
 },
 {
   "SITE NAME": "MITCHELL RIVER",
   "CU NAME": "Quesnel-Summer Timing",
   "CU TYPE": "Current",
   "FID": 122,
   "SP QUAL": "SEL",
   "POP ID": 46913,
   "GFE ID": 293,
   "GEO FEATURE TYPE": "Stream",
   "YLAT": 52.77875315,
   "XLONG": -120.8037479,
   "FAZ_ACRO": "MFR",
   "MAZ_ACRO": "GStr",
   "JAZ_ACRO": "MFR+GStr",
   "CU INDEX": "SEL-06-10",
   "OBJECTID": 152
 },
 {
   "SITE NAME": "MOFFAT CREEK",
   "CU NAME": "Quesnel-Summer Timing",
   "CU TYPE": "Current",
   "FID": 123,
   "SP QUAL": "SEL",
   "POP ID": 45042,
   "GFE ID": 2400,
   "GEO FEATURE TYPE": "Stream",
   "YLAT": 52.32665921,
   "XLONG": -121.4093535,
   "FAZ_ACRO": "MFR",
   "MAZ_ACRO": "GStr",
   "JAZ_ACRO": "MFR+GStr",
   "CU INDEX": "SEL-06-10",
   "OBJECTID": 153
 },
 {
   "SITE NAME": "NIAGARA CREEK",
   "CU NAME": "Quesnel-Summer Timing",
   "CU TYPE": "Current",
   "FID": 124,
   "SP QUAL": "SEL",
   "POP ID": 45071,
   "GFE ID": 2420,
   "GEO FEATURE TYPE": "Stream",
   "YLAT": 52.60451156,
   "XLONG": -120.428213,
   "FAZ_ACRO": "MFR",
   "MAZ_ACRO": "GStr",
   "JAZ_ACRO": "MFR+GStr",
   "CU INDEX": "SEL-06-10",
   "OBJECTID": 154
 },
 {
   "SITE NAME": "NORTH ARM UNNAMED COVE-LAKE SHORE",
   "CU NAME": "Quesnel-Summer Timing",
   "CU TYPE": "Current",
   "FID": 125,
   "SP QUAL": "SEL",
   "POP ID": 3386,
   "GFE ID": 11536,
   "GEO FEATURE TYPE": "Lake Portion",
   "YLAT": 52.66033736,
   "XLONG": -120.9741545,
   "FAZ_ACRO": "MFR",
   "MAZ_ACRO": "GStr",
   "JAZ_ACRO": "MFR+GStr",
   "CU INDEX": "SEL-06-10",
   "OBJECTID": 155
 },
 {
   "SITE NAME": "OPA BEACH-LAKE SHORE",
   "CU NAME": "Quesnel-Summer Timing",
   "CU TYPE": "Current",
   "FID": 126,
   "SP QUAL": "SEL",
   "POP ID": 3378,
   "GFE ID": 11528,
   "GEO FEATURE TYPE": "Lake Portion",
   "YLAT": 52.58639599,
   "XLONG": -121.036853,
   "FAZ_ACRO": "MFR",
   "MAZ_ACRO": "GStr",
   "JAZ_ACRO": "MFR+GStr",
   "CU INDEX": "SEL-06-10",
   "OBJECTID": 156
 },
 {
   "SITE NAME": "PENFOLD CAMP-LAKE SHORE",
   "CU NAME": "Quesnel-Summer Timing",
   "CU TYPE": "Current",
   "FID": 127,
   "SP QUAL": "SEL",
   "POP ID": 3379,
   "GFE ID": 11529,
   "GEO FEATURE TYPE": "Lake Portion",
   "YLAT": 52.76968813,
   "XLONG": -120.7956865,
   "FAZ_ACRO": "MFR",
   "MAZ_ACRO": "GStr",
   "JAZ_ACRO": "MFR+GStr",
   "CU INDEX": "SEL-06-10",
   "OBJECTID": 157
 },
 {
   "SITE NAME": "PENFOLD CREEK",
   "CU NAME": "Quesnel-Summer Timing",
   "CU TYPE": "Current",
   "FID": 128,
   "SP QUAL": "SEL",
   "POP ID": 45060,
   "GFE ID": 2409,
   "GEO FEATURE TYPE": "Stream",
   "YLAT": 52.78271847,
   "XLONG": -120.7965581,
   "FAZ_ACRO": "MFR",
   "MAZ_ACRO": "GStr",
   "JAZ_ACRO": "MFR+GStr",
   "CU INDEX": "SEL-06-10",
   "OBJECTID": 158
 },
 {
   "SITE NAME": "QUARTZ POINT SHORE",
   "CU NAME": "Quesnel-Summer Timing",
   "CU TYPE": "Current",
   "FID": 129,
   "SP QUAL": "SEL",
   "POP ID": 3356,
   "GFE ID": 11506,
   "GEO FEATURE TYPE": "Lake Portion",
   "YLAT": 52.49153006,
   "XLONG": -120.8824779,
   "FAZ_ACRO": "MFR",
   "MAZ_ACRO": "GStr",
   "JAZ_ACRO": "MFR+GStr",
   "CU INDEX": "SEL-06-10",
   "OBJECTID": 159
 },
 {
   "SITE NAME": "QUESNEL LAKE",
   "CU NAME": "Quesnel-Summer Timing",
   "CU TYPE": "Current",
   "FID": 130,
   "SP QUAL": "SEL",
   "POP ID": 45099,
   "GFE ID": 2447,
   "GEO FEATURE TYPE": "Lake",
   "YLAT": 52.60110592,
   "XLONG": -121.5470768,
   "FAZ_ACRO": "MFR",
   "MAZ_ACRO": "GStr",
   "JAZ_ACRO": "MFR+GStr",
   "CU INDEX": "SEL-06-10",
   "OBJECTID": 160
 },
 {
   "SITE NAME": "QUESNEL LAKE",
   "CU NAME": "Quesnel-Summer Timing",
   "CU TYPE": "Current",
   "FID": 131,
   "SP QUAL": "SEL",
   "POP ID": 69054,
   "GFE ID": 2447,
   "GEO FEATURE TYPE": "Lake",
   "YLAT": 52.60110592,
   "XLONG": -121.5470768,
   "FAZ_ACRO": "MFR",
   "MAZ_ACRO": "GStr",
   "JAZ_ACRO": "MFR+GStr",
   "CU INDEX": "SEL-06-10",
   "OBJECTID": 161
 },
 {
   "SITE NAME": "QUESNEL LAKE EAST ARM-UNNAMED CREEK #1",
   "CU NAME": "Quesnel-Summer Timing",
   "CU TYPE": "Current",
   "FID": 132,
   "SP QUAL": "SEL",
   "POP ID": 3080,
   "GFE ID": 2756,
   "GEO FEATURE TYPE": "Stream",
   "YLAT": 52.61257648,
   "XLONG": -120.3507932,
   "FAZ_ACRO": "MFR",
   "MAZ_ACRO": "GStr",
   "JAZ_ACRO": "MFR+GStr",
   "CU INDEX": "SEL-06-10",
   "OBJECTID": 162
 },
 {
   "SITE NAME": "QUESNEL RIVER",
   "CU NAME": "Quesnel-Summer Timing",
   "CU TYPE": "Current",
   "FID": 133,
   "SP QUAL": "SEL",
   "POP ID": 46873,
   "GFE ID": 289,
   "GEO FEATURE TYPE": "Stream",
   "YLAT": 52.97121342,
   "XLONG": -122.4960236,
   "FAZ_ACRO": "MFR",
   "MAZ_ACRO": "GStr",
   "JAZ_ACRO": "MFR+GStr",
   "CU INDEX": "SEL-06-10",
   "OBJECTID": 163
 },
 {
   "SITE NAME": "ROARING POINT-LAKE SHORE",
   "CU NAME": "Quesnel-Summer Timing",
   "CU TYPE": "Current",
   "FID": 134,
   "SP QUAL": "SEL",
   "POP ID": 3380,
   "GFE ID": 11530,
   "GEO FEATURE TYPE": "Lake Portion",
   "YLAT": 52.68506575,
   "XLONG": -120.9086811,
   "FAZ_ACRO": "MFR",
   "MAZ_ACRO": "GStr",
   "JAZ_ACRO": "MFR+GStr",
   "CU INDEX": "SEL-06-10",
   "OBJECTID": 164
 },
 {
   "SITE NAME": "ROARING RIVER",
   "CU NAME": "Quesnel-Summer Timing",
   "CU TYPE": "Current",
   "FID": 135,
   "SP QUAL": "SEL",
   "POP ID": 45063,
   "GFE ID": 2412,
   "GEO FEATURE TYPE": "Stream",
   "YLAT": 52.68593808,
   "XLONG": -120.9037551,
   "FAZ_ACRO": "MFR",
   "MAZ_ACRO": "GStr",
   "JAZ_ACRO": "MFR+GStr",
   "CU INDEX": "SEL-06-10",
   "OBJECTID": 165
 },
 {
   "SITE NAME": "ROARING RIVER TO DECEPTION POINT-LAKE SHORE",
   "CU NAME": "Quesnel-Summer Timing",
   "CU TYPE": "Current",
   "FID": 136,
   "SP QUAL": "SEL",
   "POP ID": 3383,
   "GFE ID": 11533,
   "GEO FEATURE TYPE": "Lake Portion",
   "YLAT": 52.66977096,
   "XLONG": -120.9263038,
   "FAZ_ACRO": "MFR",
   "MAZ_ACRO": "GStr",
   "JAZ_ACRO": "MFR+GStr",
   "CU INDEX": "SEL-06-10",
   "OBJECTID": 166
 },
 {
   "SITE NAME": "ROARING RIVER-LAKE SHORE",
   "CU NAME": "Quesnel-Summer Timing",
   "CU TYPE": "Current",
   "FID": 137,
   "SP QUAL": "SEL",
   "POP ID": 3381,
   "GFE ID": 11531,
   "GEO FEATURE TYPE": "Lake Portion",
   "YLAT": 52.68804516,
   "XLONG": -120.9004649,
   "FAZ_ACRO": "MFR",
   "MAZ_ACRO": "GStr",
   "JAZ_ACRO": "MFR+GStr",
   "CU INDEX": "SEL-06-10",
   "OBJECTID": 167
 },
 {
   "SITE NAME": "ROCK SLIDE SHORE",
   "CU NAME": "Quesnel-Summer Timing",
   "CU TYPE": "Current",
   "FID": 138,
   "SP QUAL": "SEL",
   "POP ID": 3357,
   "GFE ID": 11507,
   "GEO FEATURE TYPE": "Lake Portion",
   "YLAT": 52.52155,
   "XLONG": -120.879921,
   "FAZ_ACRO": "MFR",
   "MAZ_ACRO": "GStr",
   "JAZ_ACRO": "MFR+GStr",
   "CU INDEX": "SEL-06-10",
   "OBJECTID": 168
 },
 {
   "SITE NAME": "ROCK SLIDE TO PENINSULA POINT-LAKE SHORE",
   "CU NAME": "Quesnel-Summer Timing",
   "CU TYPE": "Current",
   "FID": 139,
   "SP QUAL": "SEL",
   "POP ID": 3358,
   "GFE ID": 11508,
   "GEO FEATURE TYPE": "Lake Portion",
   "YLAT": 52.513575,
   "XLONG": -120.883229,
   "FAZ_ACRO": "MFR",
   "MAZ_ACRO": "GStr",
   "JAZ_ACRO": "MFR+GStr",
   "CU INDEX": "SEL-06-10",
   "OBJECTID": 169
 },
 {
   "SITE NAME": "SERVICE CREEK",
   "CU NAME": "Quesnel-Summer Timing",
   "CU TYPE": "Current",
   "FID": 140,
   "SP QUAL": "SEL",
   "POP ID": 3081,
   "GFE ID": 2757,
   "GEO FEATURE TYPE": "Stream",
   "YLAT": 52.74654963,
   "XLONG": -120.8547837,
   "FAZ_ACRO": "MFR",
   "MAZ_ACRO": "GStr",
   "JAZ_ACRO": "MFR+GStr",
   "CU INDEX": "SEL-06-10",
   "OBJECTID": 170
 },
 {
   "SITE NAME": "SLATE BAY",
   "CU NAME": "Quesnel-Summer Timing",
   "CU TYPE": "Current",
   "FID": 141,
   "SP QUAL": "SEL",
   "POP ID": 3359,
   "GFE ID": 11509,
   "GEO FEATURE TYPE": "Lake Portion",
   "YLAT": 52.52150125,
   "XLONG": -120.879722,
   "FAZ_ACRO": "MFR",
   "MAZ_ACRO": "GStr",
   "JAZ_ACRO": "MFR+GStr",
   "CU INDEX": "SEL-06-10",
   "OBJECTID": 171
 },
 {
   "SITE NAME": "SLATE BAY-LAKE SHORE 1KM E",
   "CU NAME": "Quesnel-Summer Timing",
   "CU TYPE": "Current",
   "FID": 142,
   "SP QUAL": "SEL",
   "POP ID": 3360,
   "GFE ID": 11510,
   "GEO FEATURE TYPE": "Lake Portion",
   "YLAT": 52.490572,
   "XLONG": -120.883891,
   "FAZ_ACRO": "MFR",
   "MAZ_ACRO": "GStr",
   "JAZ_ACRO": "MFR+GStr",
   "CU INDEX": "SEL-06-10",
   "OBJECTID": 172
 },
 {
   "SITE NAME": "SPUSKS CREEK",
   "CU NAME": "Quesnel-Summer Timing",
   "CU TYPE": "Current",
   "FID": 143,
   "SP QUAL": "SEL",
   "POP ID": 3082,
   "GFE ID": 2758,
   "GEO FEATURE TYPE": "Stream",
   "YLAT": 52.51898749,
   "XLONG": -121.1077758,
   "FAZ_ACRO": "MFR",
   "MAZ_ACRO": "GStr",
   "JAZ_ACRO": "MFR+GStr",
   "CU INDEX": "SEL-06-10",
   "OBJECTID": 173
 },
 {
   "SITE NAME": "SPUSKS CREEK-LAKE SHORE",
   "CU NAME": "Quesnel-Summer Timing",
   "CU TYPE": "Current",
   "FID": 144,
   "SP QUAL": "SEL",
   "POP ID": 61077,
   "GFE ID": 5002758,
   "GEO FEATURE TYPE": "Lake Portion",
   "YLAT": 52.51895448,
   "XLONG": -121.1177786,
   "FAZ_ACRO": "MFR",
   "MAZ_ACRO": "GStr",
   "JAZ_ACRO": "MFR+GStr",
   "CU INDEX": "SEL-06-10",
   "OBJECTID": 174
 },
 {
   "SITE NAME": "SUE CREEK",
   "CU NAME": "Quesnel-Summer Timing",
   "CU TYPE": "Current",
   "FID": 145,
   "SP QUAL": "SEL",
   "POP ID": 3083,
   "GFE ID": 2759,
   "GEO FEATURE TYPE": "Stream",
   "YLAT": 52.63448107,
   "XLONG": -120.9617725,
   "FAZ_ACRO": "MFR",
   "MAZ_ACRO": "GStr",
   "JAZ_ACRO": "MFR+GStr",
   "CU INDEX": "SEL-06-10",
   "OBJECTID": 175
 },
 {
   "SITE NAME": "SUMMIT CREEK",
   "CU NAME": "Quesnel-Summer Timing",
   "CU TYPE": "Current",
   "FID": 146,
   "SP QUAL": "SEL",
   "POP ID": 45074,
   "GFE ID": 2423,
   "GEO FEATURE TYPE": "Stream",
   "YLAT": 52.61382716,
   "XLONG": -120.3438333,
   "FAZ_ACRO": "MFR",
   "MAZ_ACRO": "GStr",
   "JAZ_ACRO": "MFR+GStr",
   "CU INDEX": "SEL-06-10",
   "OBJECTID": 176
 },
 {
   "SITE NAME": "TAKU CREEK",
   "CU NAME": "Quesnel-Summer Timing",
   "CU TYPE": "Current",
   "FID": 147,
   "SP QUAL": "SEL",
   "POP ID": 3084,
   "GFE ID": 2760,
   "GEO FEATURE TYPE": "Stream",
   "YLAT": 52.61615123,
   "XLONG": -120.3883416,
   "FAZ_ACRO": "MFR",
   "MAZ_ACRO": "GStr",
   "JAZ_ACRO": "MFR+GStr",
   "CU INDEX": "SEL-06-10",
   "OBJECTID": 177
 },
 {
   "SITE NAME": "TASSE CREEK",
   "CU NAME": "Quesnel-Summer Timing",
   "CU TYPE": "Current",
   "FID": 148,
   "SP QUAL": "SEL",
   "POP ID": 3086,
   "GFE ID": 2762,
   "GEO FEATURE TYPE": "Stream",
   "YLAT": 52.54874277,
   "XLONG": -121.1344806,
   "FAZ_ACRO": "MFR",
   "MAZ_ACRO": "GStr",
   "JAZ_ACRO": "MFR+GStr",
   "CU INDEX": "SEL-06-10",
   "OBJECTID": 178
 },
 {
   "SITE NAME": "TASSE CREEK-LAKE SHORE",
   "CU NAME": "Quesnel-Summer Timing",
   "CU TYPE": "Current",
   "FID": 149,
   "SP QUAL": "SEL",
   "POP ID": 3387,
   "GFE ID": 11537,
   "GEO FEATURE TYPE": "Lake Portion",
   "YLAT": 52.5496135,
   "XLONG": -121.1172536,
   "FAZ_ACRO": "MFR",
   "MAZ_ACRO": "GStr",
   "JAZ_ACRO": "MFR+GStr",
   "CU INDEX": "SEL-06-10",
   "OBJECTID": 179
 },
 {
   "SITE NAME": "TISDALL CREEK",
   "CU NAME": "Quesnel-Summer Timing",
   "CU TYPE": "Current",
   "FID": 150,
   "SP QUAL": "SEL",
   "POP ID": 3414,
   "GFE ID": 2743,
   "GEO FEATURE TYPE": "Stream",
   "YLAT": 52.28972069,
   "XLONG": -121.1078662,
   "FAZ_ACRO": "MFR",
   "MAZ_ACRO": "GStr",
   "JAZ_ACRO": "MFR+GStr",
   "CU INDEX": "SEL-06-10",
   "OBJECTID": 180
 },
 {
   "SITE NAME": "TRICKLE CREEK",
   "CU NAME": "Quesnel-Summer Timing",
   "CU TYPE": "Current",
   "FID": 151,
   "SP QUAL": "SEL",
   "POP ID": 3087,
   "GFE ID": 2763,
   "GEO FEATURE TYPE": "Stream",
   "YLAT": 52.70274125,
   "XLONG": -120.882652,
   "FAZ_ACRO": "MFR",
   "MAZ_ACRO": "GStr",
   "JAZ_ACRO": "MFR+GStr",
   "CU INDEX": "SEL-06-10",
   "OBJECTID": 181
 },
 {
   "SITE NAME": "UNNAMED CREEK #2-LAKE SHORE",
   "CU NAME": "Quesnel-Summer Timing",
   "CU TYPE": "Current",
   "FID": 152,
   "SP QUAL": "SEL",
   "POP ID": 3361,
   "GFE ID": 11511,
   "GEO FEATURE TYPE": "Lake Portion",
   "YLAT": 52.580714,
   "XLONG": -120.569275,
   "FAZ_ACRO": "MFR",
   "MAZ_ACRO": "GStr",
   "JAZ_ACRO": "MFR+GStr",
   "CU INDEX": "SEL-06-10",
   "OBJECTID": 182
 },
 {
   "SITE NAME": "UNNAMED POINT-LAKE SHORE",
   "CU NAME": "Quesnel-Summer Timing",
   "CU TYPE": "Current",
   "FID": 153,
   "SP QUAL": "SEL",
   "POP ID": 3362,
   "GFE ID": 11512,
   "GEO FEATURE TYPE": "Lake Portion",
   "YLAT": 52.49855528,
   "XLONG": -120.7312342,
   "FAZ_ACRO": "MFR",
   "MAZ_ACRO": "GStr",
   "JAZ_ACRO": "MFR+GStr",
   "CU INDEX": "SEL-06-10",
   "OBJECTID": 183
 },
 {
   "SITE NAME": "WASKO CREEK-LAKE SHORE",
   "CU NAME": "Quesnel-Summer Timing",
   "CU TYPE": "Current",
   "FID": 154,
   "SP QUAL": "SEL",
   "POP ID": 3384,
   "GFE ID": 11534,
   "GEO FEATURE TYPE": "Lake Portion",
   "YLAT": 52.56034124,
   "XLONG": -121.0062639,
   "FAZ_ACRO": "MFR",
   "MAZ_ACRO": "GStr",
   "JAZ_ACRO": "MFR+GStr",
   "CU INDEX": "SEL-06-10",
   "OBJECTID": 184
 },
 {
   "SITE NAME": "WASKO CREEK-LOWER",
   "CU NAME": "Quesnel-Summer Timing",
   "CU TYPE": "Current",
   "FID": 155,
   "SP QUAL": "SEL",
   "POP ID": 45065,
   "GFE ID": 2414,
   "GEO FEATURE TYPE": "Stream segment",
   "YLAT": 52.56148823,
   "XLONG": -120.9999735,
   "FAZ_ACRO": "MFR",
   "MAZ_ACRO": "GStr",
   "JAZ_ACRO": "MFR+GStr",
   "CU INDEX": "SEL-06-10",
   "OBJECTID": 185
 },
 {
   "SITE NAME": "WASKO CREEK-UPPER",
   "CU NAME": "Quesnel-Summer Timing",
   "CU TYPE": "Current",
   "FID": 156,
   "SP QUAL": "SEL",
   "POP ID": 3263,
   "GFE ID": 2835,
   "GEO FEATURE TYPE": "Stream segment",
   "YLAT": 52.54326547,
   "XLONG": -120.7807374,
   "FAZ_ACRO": "MFR",
   "MAZ_ACRO": "GStr",
   "JAZ_ACRO": "MFR+GStr",
   "CU INDEX": "SEL-06-10",
   "OBJECTID": 186
 },
 {
   "SITE NAME": "WATT CREEK/MFR",
   "CU NAME": "Quesnel-Summer Timing",
   "CU TYPE": "Current",
   "FID": 157,
   "SP QUAL": "SEL",
   "POP ID": 45062,
   "GFE ID": 2411,
   "GEO FEATURE TYPE": "Stream",
   "YLAT": 52.74797344,
   "XLONG": -120.8350359,
   "FAZ_ACRO": "MFR",
   "MAZ_ACRO": "GStr",
   "JAZ_ACRO": "MFR+GStr",
   "CU INDEX": "SEL-06-10",
   "OBJECTID": 187
 },
 {
   "SITE NAME": "WATT CREEK-LAKE SHORE",
   "CU NAME": "Quesnel-Summer Timing",
   "CU TYPE": "Current",
   "FID": 158,
   "SP QUAL": "SEL",
   "POP ID": 3385,
   "GFE ID": 11535,
   "GEO FEATURE TYPE": "Lake Portion",
   "YLAT": 52.7445031,
   "XLONG": -120.8347907,
   "FAZ_ACRO": "MFR",
   "MAZ_ACRO": "GStr",
   "JAZ_ACRO": "MFR+GStr",
   "CU INDEX": "SEL-06-10",
   "OBJECTID": 188
 },
 {
   "SITE NAME": "WHIFFLE CREEK",
   "CU NAME": "Quesnel-Summer Timing",
   "CU TYPE": "Current",
   "FID": 159,
   "SP QUAL": "SEL",
   "POP ID": 3088,
   "GFE ID": 2764,
   "GEO FEATURE TYPE": "Stream",
   "YLAT": 52.4902922,
   "XLONG": -121.244046,
   "FAZ_ACRO": "MFR",
   "MAZ_ACRO": "GStr",
   "JAZ_ACRO": "MFR+GStr",
   "CU INDEX": "SEL-06-10",
   "OBJECTID": 189
 },
 {
   "SITE NAME": "DUST CREEK",
   "CU NAME": "Takla/Trembleur/Stuart-Summer Timing",
   "CU TYPE": "Current",
   "FID": 160,
   "SP QUAL": "SEL",
   "POP ID": 45582,
   "GFE ID": 328,
   "GEO FEATURE TYPE": "Stream",
   "YLAT": 55.30973903,
   "XLONG": -126.0287321,
   "FAZ_ACRO": "MFR",
   "MAZ_ACRO": "GStr",
   "JAZ_ACRO": "MFR+GStr",
   "CU INDEX": "SEL-06-13",
   "OBJECTID": 190
 },
 {
   "SITE NAME": "KAZCHEK CREEK",
   "CU NAME": "Takla/Trembleur/Stuart-Summer Timing",
   "CU TYPE": "Current",
   "FID": 161,
   "SP QUAL": "SEL",
   "POP ID": 45560,
   "GFE ID": 316,
   "GEO FEATURE TYPE": "Stream",
   "YLAT": 54.88523164,
   "XLONG": -125.1694657,
   "FAZ_ACRO": "MFR",
   "MAZ_ACRO": "GStr",
   "JAZ_ACRO": "MFR+GStr",
   "CU INDEX": "SEL-06-13",
   "OBJECTID": 191
 },
 {
   "SITE NAME": "KUZKWA RIVER",
   "CU NAME": "Takla/Trembleur/Stuart-Summer Timing",
   "CU TYPE": "Current",
   "FID": 162,
   "SP QUAL": "SEL",
   "POP ID": 45554,
   "GFE ID": 312,
   "GEO FEATURE TYPE": "Stream",
   "YLAT": 54.78768682,
   "XLONG": -124.8772439,
   "FAZ_ACRO": "MFR",
   "MAZ_ACRO": "GStr",
   "JAZ_ACRO": "MFR+GStr",
   "CU INDEX": "SEL-06-13",
   "OBJECTID": 192
 },
 {
   "SITE NAME": "MIDDLE RIVER",
   "CU NAME": "Takla/Trembleur/Stuart-Summer Timing",
   "CU TYPE": "Current",
   "FID": 163,
   "SP QUAL": "SEL",
   "POP ID": 61007,
   "GFE ID": 2485,
   "GEO FEATURE TYPE": "Stream",
   "YLAT": 54.86607079,
   "XLONG": -125.1183878,
   "FAZ_ACRO": "MFR",
   "MAZ_ACRO": "GStr",
   "JAZ_ACRO": "MFR+GStr",
   "CU INDEX": "SEL-06-13",
   "OBJECTID": 193
 },
 {
   "SITE NAME": "MIDDLE RIVER-ROSSETTE BAR",
   "CU NAME": "Takla/Trembleur/Stuart-Summer Timing",
   "CU TYPE": "Current",
   "FID": 164,
   "SP QUAL": "SEL",
   "POP ID": 45552,
   "GFE ID": 310,
   "GEO FEATURE TYPE": "Stream segment",
   "YLAT": 54.88930596,
   "XLONG": -125.1771783,
   "FAZ_ACRO": "MFR",
   "MAZ_ACRO": "GStr",
   "JAZ_ACRO": "MFR+GStr",
   "CU INDEX": "SEL-06-13",
   "OBJECTID": 194
 },
 {
   "SITE NAME": "PINCHI CREEK",
   "CU NAME": "Takla/Trembleur/Stuart-Summer Timing",
   "CU TYPE": "Current",
   "FID": 165,
   "SP QUAL": "SEL",
   "POP ID": 45539,
   "GFE ID": 308,
   "GEO FEATURE TYPE": "Stream",
   "YLAT": 54.56409055,
   "XLONG": -124.4892837,
   "FAZ_ACRO": "MFR",
   "MAZ_ACRO": "GStr",
   "JAZ_ACRO": "MFR+GStr",
   "CU INDEX": "SEL-06-13",
   "OBJECTID": 195
 },
 {
   "SITE NAME": "SAKENICHE RIVER",
   "CU NAME": "Takla/Trembleur/Stuart-Summer Timing",
   "CU TYPE": "Current",
   "FID": 166,
   "SP QUAL": "SEL",
   "POP ID": 45578,
   "GFE ID": 325,
   "GEO FEATURE TYPE": "Stream",
   "YLAT": 55.15260373,
   "XLONG": -125.7709187,
   "FAZ_ACRO": "MFR",
   "MAZ_ACRO": "GStr",
   "JAZ_ACRO": "MFR+GStr",
   "CU INDEX": "SEL-06-13",
   "OBJECTID": 196
 },
 {
   "SITE NAME": "SOWCHEA CREEK",
   "CU NAME": "Takla/Trembleur/Stuart-Summer Timing",
   "CU TYPE": "Current",
   "FID": 167,
   "SP QUAL": "SEL",
   "POP ID": 3218,
   "GFE ID": 307,
   "GEO FEATURE TYPE": "Stream",
   "YLAT": 54.42671741,
   "XLONG": -124.4045295,
   "FAZ_ACRO": "MFR",
   "MAZ_ACRO": "GStr",
   "JAZ_ACRO": "MFR+GStr",
   "CU INDEX": "SEL-06-13",
   "OBJECTID": 197
 },
 {
   "SITE NAME": "STUART LAKE",
   "CU NAME": "Takla/Trembleur/Stuart-Summer Timing",
   "CU TYPE": "Current",
   "FID": 168,
   "SP QUAL": "SEL",
   "POP ID": 45090,
   "GFE ID": 2438,
   "GEO FEATURE TYPE": "Lake",
   "YLAT": 54.48027671,
   "XLONG": -124.4362723,
   "FAZ_ACRO": "MFR",
   "MAZ_ACRO": "GStr",
   "JAZ_ACRO": "MFR+GStr",
   "CU INDEX": "SEL-06-13",
   "OBJECTID": 198
 },
 {
   "SITE NAME": "STUART RIVER",
   "CU NAME": "Takla/Trembleur/Stuart-Summer Timing",
   "CU TYPE": "Current",
   "FID": 169,
   "SP QUAL": "SEL",
   "POP ID": 2457,
   "GFE ID": 305,
   "GEO FEATURE TYPE": "Stream",
   "YLAT": 53.98885075,
   "XLONG": -123.5409355,
   "FAZ_ACRO": "MFR",
   "MAZ_ACRO": "GStr",
   "JAZ_ACRO": "MFR+GStr",
   "CU INDEX": "SEL-06-13",
   "OBJECTID": 199
 },
 {
   "SITE NAME": "TACHIE RIVER",
   "CU NAME": "Takla/Trembleur/Stuart-Summer Timing",
   "CU TYPE": "Current",
   "FID": 170,
   "SP QUAL": "SEL",
   "POP ID": 45549,
   "GFE ID": 309,
   "GEO FEATURE TYPE": "Stream",
   "YLAT": 54.65782103,
   "XLONG": -124.7720688,
   "FAZ_ACRO": "MFR",
   "MAZ_ACRO": "GStr",
   "JAZ_ACRO": "MFR+GStr",
   "CU INDEX": "SEL-06-13",
   "OBJECTID": 200
 },
 {
   "SITE NAME": "TAKLA LAKE",
   "CU NAME": "Takla/Trembleur/Stuart-Summer Timing",
   "CU TYPE": "Current",
   "FID": 171,
   "SP QUAL": "SEL",
   "POP ID": 45091,
   "GFE ID": 2439,
   "GEO FEATURE TYPE": "Lake",
   "YLAT": 55.07007689,
   "XLONG": -125.5437833,
   "FAZ_ACRO": "MFR",
   "MAZ_ACRO": "GStr",
   "JAZ_ACRO": "MFR+GStr",
   "CU INDEX": "SEL-06-13",
   "OBJECTID": 201
 },
 {
   "SITE NAME": "15 MILE CREEK",
   "CU NAME": "Takla/Trembleur-Early Stuart Timing",
   "CU TYPE": "Current",
   "FID": 172,
   "SP QUAL": "SEL",
   "POP ID": 45590,
   "GFE ID": 336,
   "GEO FEATURE TYPE": "Stream",
   "YLAT": 55.3315823,
   "XLONG": -125.7663664,
   "FAZ_ACRO": "MFR",
   "MAZ_ACRO": "GStr",
   "JAZ_ACRO": "MFR+GStr",
   "CU INDEX": "SEL-06-14",
   "OBJECTID": 202
 },
 {
   "SITE NAME": "25 MILE CREEK",
   "CU NAME": "Takla/Trembleur-Early Stuart Timing",
   "CU TYPE": "Current",
   "FID": 173,
   "SP QUAL": "SEL",
   "POP ID": 45587,
   "GFE ID": 333,
   "GEO FEATURE TYPE": "Stream",
   "YLAT": 55.2677005,
   "XLONG": -125.7160347,
   "FAZ_ACRO": "MFR",
   "MAZ_ACRO": "GStr",
   "JAZ_ACRO": "MFR+GStr",
   "CU INDEX": "SEL-06-14",
   "OBJECTID": 203
 },
 {
   "SITE NAME": "ANKWILL CREEK",
   "CU NAME": "Takla/Trembleur-Early Stuart Timing",
   "CU TYPE": "Current",
   "FID": 174,
   "SP QUAL": "SEL",
   "POP ID": 45596,
   "GFE ID": 342,
   "GEO FEATURE TYPE": "Stream",
   "YLAT": 55.65765912,
   "XLONG": -126.1917469,
   "FAZ_ACRO": "MFR",
   "MAZ_ACRO": "GStr",
   "JAZ_ACRO": "MFR+GStr",
   "CU INDEX": "SEL-06-14",
   "OBJECTID": 204
 },
 {
   "SITE NAME": "BAPTISTE CREEK",
   "CU NAME": "Takla/Trembleur-Early Stuart Timing",
   "CU TYPE": "Current",
   "FID": 175,
   "SP QUAL": "SEL",
   "POP ID": 45553,
   "GFE ID": 311,
   "GEO FEATURE TYPE": "Stream",
   "YLAT": 54.89281444,
   "XLONG": -125.1827216,
   "FAZ_ACRO": "MFR",
   "MAZ_ACRO": "GStr",
   "JAZ_ACRO": "MFR+GStr",
   "CU INDEX": "SEL-06-14",
   "OBJECTID": 205
 },
 {
   "SITE NAME": "BATES CREEK",
   "CU NAME": "Takla/Trembleur-Early Stuart Timing",
   "CU TYPE": "Current",
   "FID": 176,
   "SP QUAL": "SEL",
   "POP ID": 45597,
   "GFE ID": 343,
   "GEO FEATURE TYPE": "Stream",
   "YLAT": 55.70797199,
   "XLONG": -126.2384174,
   "FAZ_ACRO": "MFR",
   "MAZ_ACRO": "GStr",
   "JAZ_ACRO": "MFR+GStr",
   "CU INDEX": "SEL-06-14",
   "OBJECTID": 206
 },
 {
   "SITE NAME": "BIVOUAC CREEK",
   "CU NAME": "Takla/Trembleur-Early Stuart Timing",
   "CU TYPE": "Current",
   "FID": 177,
   "SP QUAL": "SEL",
   "POP ID": 45574,
   "GFE ID": 322,
   "GEO FEATURE TYPE": "Stream",
   "YLAT": 55.0754856,
   "XLONG": -125.5692534,
   "FAZ_ACRO": "MFR",
   "MAZ_ACRO": "GStr",
   "JAZ_ACRO": "MFR+GStr",
   "CU INDEX": "SEL-06-14",
   "OBJECTID": 207
 },
 {
   "SITE NAME": "BLACKWATER CREEK/MFR",
   "CU NAME": "Takla/Trembleur-Early Stuart Timing",
   "CU TYPE": "Current",
   "FID": 178,
   "SP QUAL": "SEL",
   "POP ID": 45600,
   "GFE ID": 345,
   "GEO FEATURE TYPE": "Stream",
   "YLAT": 55.72520515,
   "XLONG": -126.3064001,
   "FAZ_ACRO": "MFR",
   "MAZ_ACRO": "GStr",
   "JAZ_ACRO": "MFR+GStr",
   "CU INDEX": "SEL-06-14",
   "OBJECTID": 208
 },
 {
   "SITE NAME": "BLANCHETTE CREEK",
   "CU NAME": "Takla/Trembleur-Early Stuart Timing",
   "CU TYPE": "Current",
   "FID": 179,
   "SP QUAL": "SEL",
   "POP ID": 45589,
   "GFE ID": 335,
   "GEO FEATURE TYPE": "Stream",
   "YLAT": 55.2760195,
   "XLONG": -125.7515479,
   "FAZ_ACRO": "MFR",
   "MAZ_ACRO": "GStr",
   "JAZ_ACRO": "MFR+GStr",
   "CU INDEX": "SEL-06-14",
   "OBJECTID": 209
 },
 {
   "SITE NAME": "CASIMIR CREEK",
   "CU NAME": "Takla/Trembleur-Early Stuart Timing",
   "CU TYPE": "Current",
   "FID": 180,
   "SP QUAL": "SEL",
   "POP ID": 45573,
   "GFE ID": 321,
   "GEO FEATURE TYPE": "Stream",
   "YLAT": 55.08032792,
   "XLONG": -125.5546957,
   "FAZ_ACRO": "MFR",
   "MAZ_ACRO": "GStr",
   "JAZ_ACRO": "MFR+GStr",
   "CU INDEX": "SEL-06-14",
   "OBJECTID": 210
 },
 {
   "SITE NAME": "CONSOLIDATE CREEK",
   "CU NAME": "Takla/Trembleur-Early Stuart Timing",
   "CU TYPE": "Current",
   "FID": 181,
   "SP QUAL": "SEL",
   "POP ID": 45604,
   "GFE ID": 349,
   "GEO FEATURE TYPE": "Stream",
   "YLAT": 55.84092391,
   "XLONG": -126.4663167,
   "FAZ_ACRO": "MFR",
   "MAZ_ACRO": "GStr",
   "JAZ_ACRO": "MFR+GStr",
   "CU INDEX": "SEL-06-14",
   "OBJECTID": 211
 },
 {
   "SITE NAME": "CROW CREEK",
   "CU NAME": "Takla/Trembleur-Early Stuart Timing",
   "CU TYPE": "Current",
   "FID": 182,
   "SP QUAL": "SEL",
   "POP ID": 45583,
   "GFE ID": 329,
   "GEO FEATURE TYPE": "Stream",
   "YLAT": 55.28446198,
   "XLONG": -125.9972287,
   "FAZ_ACRO": "MFR",
   "MAZ_ACRO": "GStr",
   "JAZ_ACRO": "MFR+GStr",
   "CU INDEX": "SEL-06-14",
   "OBJECTID": 212
 },
 {
   "SITE NAME": "DRIFTWOOD RIVER",
   "CU NAME": "Takla/Trembleur-Early Stuart Timing",
   "CU TYPE": "Current",
   "FID": 183,
   "SP QUAL": "SEL",
   "POP ID": 45598,
   "GFE ID": 344,
   "GEO FEATURE TYPE": "Stream",
   "YLAT": 55.69931908,
   "XLONG": -126.2513263,
   "FAZ_ACRO": "MFR",
   "MAZ_ACRO": "GStr",
   "JAZ_ACRO": "MFR+GStr",
   "CU INDEX": "SEL-06-14",
   "OBJECTID": 213
 },
 {
   "SITE NAME": "DUST CREEK",
   "CU NAME": "Takla/Trembleur-Early Stuart Timing",
   "CU TYPE": "Current",
   "FID": 184,
   "SP QUAL": "SEL",
   "POP ID": 45581,
   "GFE ID": 328,
   "GEO FEATURE TYPE": "Stream",
   "YLAT": 55.30973903,
   "XLONG": -126.0287321,
   "FAZ_ACRO": "MFR",
   "MAZ_ACRO": "GStr",
   "JAZ_ACRO": "MFR+GStr",
   "CU INDEX": "SEL-06-14",
   "OBJECTID": 214
 },
 {
   "SITE NAME": "FLEMING CREEK",
   "CU NAME": "Takla/Trembleur-Early Stuart Timing",
   "CU TYPE": "Current",
   "FID": 185,
   "SP QUAL": "SEL",
   "POP ID": 45556,
   "GFE ID": 313,
   "GEO FEATURE TYPE": "Stream",
   "YLAT": 54.76947303,
   "XLONG": -125.4142366,
   "FAZ_ACRO": "MFR",
   "MAZ_ACRO": "GStr",
   "JAZ_ACRO": "MFR+GStr",
   "CU INDEX": "SEL-06-14",
   "OBJECTID": 215
 },
 {
   "SITE NAME": "FORFAR CREEK",
   "CU NAME": "Takla/Trembleur-Early Stuart Timing",
   "CU TYPE": "Current",
   "FID": 186,
   "SP QUAL": "SEL",
   "POP ID": 45571,
   "GFE ID": 319,
   "GEO FEATURE TYPE": "Stream",
   "YLAT": 55.04305333,
   "XLONG": -125.4687001,
   "FAZ_ACRO": "MFR",
   "MAZ_ACRO": "GStr",
   "JAZ_ACRO": "MFR+GStr",
   "CU INDEX": "SEL-06-14",
   "OBJECTID": 216
 },
 {
   "SITE NAME": "FRENCH CREEK/MFR",
   "CU NAME": "Takla/Trembleur-Early Stuart Timing",
   "CU TYPE": "Current",
   "FID": 187,
   "SP QUAL": "SEL",
   "POP ID": 45595,
   "GFE ID": 341,
   "GEO FEATURE TYPE": "Stream",
   "YLAT": 55.65880032,
   "XLONG": -126.1665642,
   "FAZ_ACRO": "MFR",
   "MAZ_ACRO": "GStr",
   "JAZ_ACRO": "MFR+GStr",
   "CU INDEX": "SEL-06-14",
   "OBJECTID": 217
 },
 {
   "SITE NAME": "FRYPAN CREEK",
   "CU NAME": "Takla/Trembleur-Early Stuart Timing",
   "CU TYPE": "Current",
   "FID": 188,
   "SP QUAL": "SEL",
   "POP ID": 45593,
   "GFE ID": 339,
   "GEO FEATURE TYPE": "Stream",
   "YLAT": 55.52384062,
   "XLONG": -126.0723655,
   "FAZ_ACRO": "MFR",
   "MAZ_ACRO": "GStr",
   "JAZ_ACRO": "MFR+GStr",
   "CU INDEX": "SEL-06-14",
   "OBJECTID": 218
 },
 {
   "SITE NAME": "GLUSKE CREEK",
   "CU NAME": "Takla/Trembleur-Early Stuart Timing",
   "CU TYPE": "Current",
   "FID": 189,
   "SP QUAL": "SEL",
   "POP ID": 45572,
   "GFE ID": 320,
   "GEO FEATURE TYPE": "Stream",
   "YLAT": 55.05665988,
   "XLONG": -125.5146776,
   "FAZ_ACRO": "MFR",
   "MAZ_ACRO": "GStr",
   "JAZ_ACRO": "MFR+GStr",
   "CU INDEX": "SEL-06-14",
   "OBJECTID": 219
 },
 {
   "SITE NAME": "HOOKER CREEK",
   "CU NAME": "Takla/Trembleur-Early Stuart Timing",
   "CU TYPE": "Current",
   "FID": 190,
   "SP QUAL": "SEL",
   "POP ID": 45584,
   "GFE ID": 330,
   "GEO FEATURE TYPE": "Stream",
   "YLAT": 55.26905752,
   "XLONG": -125.9828827,
   "FAZ_ACRO": "MFR",
   "MAZ_ACRO": "GStr",
   "JAZ_ACRO": "MFR+GStr",
   "CU INDEX": "SEL-06-14",
   "OBJECTID": 220
 },
 {
   "SITE NAME": "HUDSON BAY CREEK",
   "CU NAME": "Takla/Trembleur-Early Stuart Timing",
   "CU TYPE": "Current",
   "FID": 191,
   "SP QUAL": "SEL",
   "POP ID": 45592,
   "GFE ID": 338,
   "GEO FEATURE TYPE": "Stream",
   "YLAT": 55.48324597,
   "XLONG": -125.9817186,
   "FAZ_ACRO": "MFR",
   "MAZ_ACRO": "GStr",
   "JAZ_ACRO": "MFR+GStr",
   "CU INDEX": "SEL-06-14",
   "OBJECTID": 221
 },
 {
   "SITE NAME": "KASTBERG CREEK",
   "CU NAME": "Takla/Trembleur-Early Stuart Timing",
   "CU TYPE": "Current",
   "FID": 192,
   "SP QUAL": "SEL",
   "POP ID": 45605,
   "GFE ID": 350,
   "GEO FEATURE TYPE": "Stream",
   "YLAT": 55.92500814,
   "XLONG": -126.5821332,
   "FAZ_ACRO": "MFR",
   "MAZ_ACRO": "GStr",
   "JAZ_ACRO": "MFR+GStr",
   "CU INDEX": "SEL-06-14",
   "OBJECTID": 222
 },
 {
   "SITE NAME": "KAZCHEK CREEK",
   "CU NAME": "Takla/Trembleur-Early Stuart Timing",
   "CU TYPE": "Current",
   "FID": 193,
   "SP QUAL": "SEL",
   "POP ID": 45559,
   "GFE ID": 316,
   "GEO FEATURE TYPE": "Stream",
   "YLAT": 54.88523164,
   "XLONG": -125.1694657,
   "FAZ_ACRO": "MFR",
   "MAZ_ACRO": "GStr",
   "JAZ_ACRO": "MFR+GStr",
   "CU INDEX": "SEL-06-14",
   "OBJECTID": 223
 },
 {
   "SITE NAME": "KOTSINE RIVER",
   "CU NAME": "Takla/Trembleur-Early Stuart Timing",
   "CU TYPE": "Current",
   "FID": 194,
   "SP QUAL": "SEL",
   "POP ID": 45603,
   "GFE ID": 348,
   "GEO FEATURE TYPE": "Stream",
   "YLAT": 55.8190223,
   "XLONG": -126.4347566,
   "FAZ_ACRO": "MFR",
   "MAZ_ACRO": "GStr",
   "JAZ_ACRO": "MFR+GStr",
   "CU INDEX": "SEL-06-14",
   "OBJECTID": 224
 },
 {
   "SITE NAME": "LEO CREEK",
   "CU NAME": "Takla/Trembleur-Early Stuart Timing",
   "CU TYPE": "Current",
   "FID": 195,
   "SP QUAL": "SEL",
   "POP ID": 45575,
   "GFE ID": 323,
   "GEO FEATURE TYPE": "Stream",
   "YLAT": 55.08709828,
   "XLONG": -125.5833288,
   "FAZ_ACRO": "MFR",
   "MAZ_ACRO": "GStr",
   "JAZ_ACRO": "MFR+GStr",
   "CU INDEX": "SEL-06-14",
   "OBJECTID": 225
 },
 {
   "SITE NAME": "LION CREEK",
   "CU NAME": "Takla/Trembleur-Early Stuart Timing",
   "CU TYPE": "Current",
   "FID": 196,
   "SP QUAL": "SEL",
   "POP ID": 45601,
   "GFE ID": 346,
   "GEO FEATURE TYPE": "Stream",
   "YLAT": 55.76864022,
   "XLONG": -126.354046,
   "FAZ_ACRO": "MFR",
   "MAZ_ACRO": "GStr",
   "JAZ_ACRO": "MFR+GStr",
   "CU INDEX": "SEL-06-14",
   "OBJECTID": 226
 },
 {
   "SITE NAME": "LOVELL CREEK",
   "CU NAME": "Takla/Trembleur-Early Stuart Timing",
   "CU TYPE": "Current",
   "FID": 197,
   "SP QUAL": "SEL",
   "POP ID": 45594,
   "GFE ID": 340,
   "GEO FEATURE TYPE": "Stream",
   "YLAT": 55.54371679,
   "XLONG": -126.0887521,
   "FAZ_ACRO": "MFR",
   "MAZ_ACRO": "GStr",
   "JAZ_ACRO": "MFR+GStr",
   "CU INDEX": "SEL-06-14",
   "OBJECTID": 227
 },
 {
   "SITE NAME": "MACLAING CREEK",
   "CU NAME": "Takla/Trembleur-Early Stuart Timing",
   "CU TYPE": "Current",
   "FID": 198,
   "SP QUAL": "SEL",
   "POP ID": 45591,
   "GFE ID": 337,
   "GEO FEATURE TYPE": "Stream",
   "YLAT": 55.45948881,
   "XLONG": -125.9382912,
   "FAZ_ACRO": "MFR",
   "MAZ_ACRO": "GStr",
   "JAZ_ACRO": "MFR+GStr",
   "CU INDEX": "SEL-06-14",
   "OBJECTID": 228
 },
 {
   "SITE NAME": "MCDOUGALL CREEK",
   "CU NAME": "Takla/Trembleur-Early Stuart Timing",
   "CU TYPE": "Current",
   "FID": 199,
   "SP QUAL": "SEL",
   "POP ID": 45579,
   "GFE ID": 326,
   "GEO FEATURE TYPE": "Stream",
   "YLAT": 55.22998211,
   "XLONG": -126.0030197,
   "FAZ_ACRO": "MFR",
   "MAZ_ACRO": "GStr",
   "JAZ_ACRO": "MFR+GStr",
   "CU INDEX": "SEL-06-14",
   "OBJECTID": 229
 },
 {
   "SITE NAME": "MIDDLE RIVER-ROSSETTE BAR",
   "CU NAME": "Takla/Trembleur-Early Stuart Timing",
   "CU TYPE": "Current",
   "FID": 200,
   "SP QUAL": "SEL",
   "POP ID": 45551,
   "GFE ID": 310,
   "GEO FEATURE TYPE": "Stream segment",
   "YLAT": 54.88930596,
   "XLONG": -125.1771783,
   "FAZ_ACRO": "MFR",
   "MAZ_ACRO": "GStr",
   "JAZ_ACRO": "MFR+GStr",
   "CU INDEX": "SEL-06-14",
   "OBJECTID": 230
 },
 {
   "SITE NAME": "NARROWS CREEK",
   "CU NAME": "Takla/Trembleur-Early Stuart Timing",
   "CU TYPE": "Current",
   "FID": 201,
   "SP QUAL": "SEL",
   "POP ID": 45586,
   "GFE ID": 332,
   "GEO FEATURE TYPE": "Stream",
   "YLAT": 55.16976812,
   "XLONG": -125.7188882,
   "FAZ_ACRO": "MFR",
   "MAZ_ACRO": "GStr",
   "JAZ_ACRO": "MFR+GStr",
   "CU INDEX": "SEL-06-14",
   "OBJECTID": 231
 },
 {
   "SITE NAME": "O'NE-ELL CREEK",
   "CU NAME": "Takla/Trembleur-Early Stuart Timing",
   "CU TYPE": "Current",
   "FID": 202,
   "SP QUAL": "SEL",
   "POP ID": 45570,
   "GFE ID": 318,
   "GEO FEATURE TYPE": "Stream",
   "YLAT": 55.00414311,
   "XLONG": -125.393885,
   "FAZ_ACRO": "MFR",
   "MAZ_ACRO": "GStr",
   "JAZ_ACRO": "MFR+GStr",
   "CU INDEX": "SEL-06-14",
   "OBJECTID": 232
 },
 {
   "SITE NAME": "PAULA CREEK",
   "CU NAME": "Takla/Trembleur-Early Stuart Timing",
   "CU TYPE": "Current",
   "FID": 203,
   "SP QUAL": "SEL",
   "POP ID": 45557,
   "GFE ID": 314,
   "GEO FEATURE TYPE": "Stream",
   "YLAT": 54.782155,
   "XLONG": -125.3869792,
   "FAZ_ACRO": "MFR",
   "MAZ_ACRO": "GStr",
   "JAZ_ACRO": "MFR+GStr",
   "CU INDEX": "SEL-06-14",
   "OBJECTID": 233
 },
 {
   "SITE NAME": "POINT CREEK",
   "CU NAME": "Takla/Trembleur-Early Stuart Timing",
   "CU TYPE": "Current",
   "FID": 204,
   "SP QUAL": "SEL",
   "POP ID": 45585,
   "GFE ID": 331,
   "GEO FEATURE TYPE": "Stream",
   "YLAT": 55.23145726,
   "XLONG": -125.9724082,
   "FAZ_ACRO": "MFR",
   "MAZ_ACRO": "GStr",
   "JAZ_ACRO": "MFR+GStr",
   "CU INDEX": "SEL-06-14",
   "OBJECTID": 234
 },
 {
   "SITE NAME": "PORTER CREEK/MFR",
   "CU NAME": "Takla/Trembleur-Early Stuart Timing",
   "CU TYPE": "Current",
   "FID": 205,
   "SP QUAL": "SEL",
   "POP ID": 45602,
   "GFE ID": 347,
   "GEO FEATURE TYPE": "Stream",
   "YLAT": 55.77933335,
   "XLONG": -126.3802611,
   "FAZ_ACRO": "MFR",
   "MAZ_ACRO": "GStr",
   "JAZ_ACRO": "MFR+GStr",
   "CU INDEX": "SEL-06-14",
   "OBJECTID": 235
 },
 {
   "SITE NAME": "SAKENICHE RIVER",
   "CU NAME": "Takla/Trembleur-Early Stuart Timing",
   "CU TYPE": "Current",
   "FID": 206,
   "SP QUAL": "SEL",
   "POP ID": 45577,
   "GFE ID": 325,
   "GEO FEATURE TYPE": "Stream",
   "YLAT": 55.15260373,
   "XLONG": -125.7709187,
   "FAZ_ACRO": "MFR",
   "MAZ_ACRO": "GStr",
   "JAZ_ACRO": "MFR+GStr",
   "CU INDEX": "SEL-06-14",
   "OBJECTID": 236
 },
 {
   "SITE NAME": "SANDPOINT CREEK",
   "CU NAME": "Takla/Trembleur-Early Stuart Timing",
   "CU TYPE": "Current",
   "FID": 207,
   "SP QUAL": "SEL",
   "POP ID": 45576,
   "GFE ID": 324,
   "GEO FEATURE TYPE": "Stream",
   "YLAT": 55.12935613,
   "XLONG": -125.6678488,
   "FAZ_ACRO": "MFR",
   "MAZ_ACRO": "GStr",
   "JAZ_ACRO": "MFR+GStr",
   "CU INDEX": "SEL-06-14",
   "OBJECTID": 237
 },
 {
   "SITE NAME": "SHALE CREEK/MFR",
   "CU NAME": "Takla/Trembleur-Early Stuart Timing",
   "CU TYPE": "Current",
   "FID": 208,
   "SP QUAL": "SEL",
   "POP ID": 45588,
   "GFE ID": 334,
   "GEO FEATURE TYPE": "Stream",
   "YLAT": 55.27698847,
   "XLONG": -125.7255299,
   "FAZ_ACRO": "MFR",
   "MAZ_ACRO": "GStr",
   "JAZ_ACRO": "MFR+GStr",
   "CU INDEX": "SEL-06-14",
   "OBJECTID": 238
 },
 {
   "SITE NAME": "SIDNEY CREEK/MFR",
   "CU NAME": "Takla/Trembleur-Early Stuart Timing",
   "CU TYPE": "Current",
   "FID": 209,
   "SP QUAL": "SEL",
   "POP ID": 45558,
   "GFE ID": 315,
   "GEO FEATURE TYPE": "Stream",
   "YLAT": 54.78687364,
   "XLONG": -125.3678254,
   "FAZ_ACRO": "MFR",
   "MAZ_ACRO": "GStr",
   "JAZ_ACRO": "MFR+GStr",
   "CU INDEX": "SEL-06-14",
   "OBJECTID": 239
 },
 {
   "SITE NAME": "SINTA CREEK",
   "CU NAME": "Takla/Trembleur-Early Stuart Timing",
   "CU TYPE": "Current",
   "FID": 210,
   "SP QUAL": "SEL",
   "POP ID": 45580,
   "GFE ID": 327,
   "GEO FEATURE TYPE": "Stream",
   "YLAT": 55.30228612,
   "XLONG": -126.0303025,
   "FAZ_ACRO": "MFR",
   "MAZ_ACRO": "GStr",
   "JAZ_ACRO": "MFR+GStr",
   "CU INDEX": "SEL-06-14",
   "OBJECTID": 240
 },
 {
   "SITE NAME": "TAKLA LAKE - UNNAMED CREEK (NORTH OF BLANCHETTE)",
   "CU NAME": "Takla/Trembleur-Early Stuart Timing",
   "CU TYPE": "Current",
   "FID": 211,
   "SP QUAL": "SEL",
   "POP ID": 3089,
   "GFE ID": 2765,
   "GEO FEATURE TYPE": "Stream",
   "YLAT": 55.2827171,
   "XLONG": -125.7671317,
   "FAZ_ACRO": "MFR",
   "MAZ_ACRO": "GStr",
   "JAZ_ACRO": "MFR+GStr",
   "CU INDEX": "SEL-06-14",
   "OBJECTID": 241
 },
 {
   "SITE NAME": "TAKLA-LAKE SHORE",
   "CU NAME": "Takla/Trembleur-Early Stuart Timing",
   "CU TYPE": "Current",
   "FID": 212,
   "SP QUAL": "SEL",
   "POP ID": 7003,
   "GFE ID": 19719,
   "GEO FEATURE TYPE": "Lake Portion",
   "YLAT": 55.07007689,
   "XLONG": -125.5437833,
   "FAZ_ACRO": "MFR",
   "MAZ_ACRO": "GStr",
   "JAZ_ACRO": "MFR+GStr",
   "CU INDEX": "SEL-06-14",
   "OBJECTID": 242
 },
 {
   "SITE NAME": "TILDESLEY CREEK",
   "CU NAME": "Takla/Trembleur-Early Stuart Timing",
   "CU TYPE": "Current",
   "FID": 213,
   "SP QUAL": "SEL",
   "POP ID": 45078,
   "GFE ID": 2428,
   "GEO FEATURE TYPE": "Stream",
   "YLAT": 54.76847861,
   "XLONG": -125.496244,
   "FAZ_ACRO": "MFR",
   "MAZ_ACRO": "GStr",
   "JAZ_ACRO": "MFR+GStr",
   "CU INDEX": "SEL-06-14",
   "OBJECTID": 243
 },
 {
   "SITE NAME": "TLITI CREEK",
   "CU NAME": "Takla/Trembleur-Early Stuart Timing",
   "CU TYPE": "Current",
   "FID": 214,
   "SP QUAL": "SEL",
   "POP ID": 45076,
   "GFE ID": 2424,
   "GEO FEATURE TYPE": "Stream",
   "YLAT": 55.38840721,
   "XLONG": -125.8313161,
   "FAZ_ACRO": "MFR",
   "MAZ_ACRO": "GStr",
   "JAZ_ACRO": "MFR+GStr",
   "CU INDEX": "SEL-06-14",
   "OBJECTID": 244
 },
 {
   "SITE NAME": "VAN DECAR CREEK",
   "CU NAME": "Takla/Trembleur-Early Stuart Timing",
   "CU TYPE": "Current",
   "FID": 215,
   "SP QUAL": "SEL",
   "POP ID": 45569,
   "GFE ID": 317,
   "GEO FEATURE TYPE": "Stream",
   "YLAT": 54.96806172,
   "XLONG": -125.3409924,
   "FAZ_ACRO": "MFR",
   "MAZ_ACRO": "GStr",
   "JAZ_ACRO": "MFR+GStr",
   "CU INDEX": "SEL-06-14",
   "OBJECTID": 245
 },
 {
   "SITE NAME": "ELKIN CREEK",
   "CU NAME": "Taseko-Early Summer Timing",
   "CU TYPE": "Current",
   "FID": 216,
   "SP QUAL": "SEL",
   "POP ID": 46863,
   "GFE ID": 288,
   "GEO FEATURE TYPE": "Stream",
   "YLAT": 51.68588715,
   "XLONG": -123.7224791,
   "FAZ_ACRO": "MFR",
   "MAZ_ACRO": "GStr",
   "JAZ_ACRO": "MFR+GStr",
   "CU INDEX": "SEL-06-16",
   "OBJECTID": 246
 },
 {
   "SITE NAME": "LASTMAN CREEK",
   "CU NAME": "Taseko-Early Summer Timing",
   "CU TYPE": "Current",
   "FID": 217,
   "SP QUAL": "SEL",
   "POP ID": 7744,
   "GFE ID": 54099,
   "GEO FEATURE TYPE": "Stream",
   "YLAT": 51.33549044,
   "XLONG": -123.6284356,
   "FAZ_ACRO": "MFR",
   "MAZ_ACRO": "GStr",
   "JAZ_ACRO": "MFR+GStr",
   "CU INDEX": "SEL-06-16",
   "OBJECTID": 247
 },
 {
   "SITE NAME": "ROLAND CREEK/MFR",
   "CU NAME": "Taseko-Early Summer Timing",
   "CU TYPE": "Current",
   "FID": 218,
   "SP QUAL": "SEL",
   "POP ID": 61044,
   "GFE ID": 201033,
   "GEO FEATURE TYPE": "Stream",
   "YLAT": 51.20057469,
   "XLONG": -123.5940506,
   "FAZ_ACRO": "MFR",
   "MAZ_ACRO": "GStr",
   "JAZ_ACRO": "MFR+GStr",
   "CU INDEX": "SEL-06-16",
   "OBJECTID": 248
 },
 {
   "SITE NAME": "TASEKO LAKE",
   "CU NAME": "Taseko-Early Summer Timing",
   "CU TYPE": "Current",
   "FID": 219,
   "SP QUAL": "SEL",
   "POP ID": 46853,
   "GFE ID": 287,
   "GEO FEATURE TYPE": "Lake",
   "YLAT": 51.34893023,
   "XLONG": -123.619087,
   "FAZ_ACRO": "MFR",
   "MAZ_ACRO": "GStr",
   "JAZ_ACRO": "MFR+GStr",
   "CU INDEX": "SEL-06-16",
   "OBJECTID": 249
 },
 {
   "SITE NAME": "TASEKO RIVER",
   "CU NAME": "Taseko-Early Summer Timing",
   "CU TYPE": "Current",
   "FID": 220,
   "SP QUAL": "SEL",
   "POP ID": 2515,
   "GFE ID": 2636,
   "GEO FEATURE TYPE": "Stream",
   "YLAT": 52.00672961,
   "XLONG": -123.6769982,
   "FAZ_ACRO": "MFR",
   "MAZ_ACRO": "GStr",
   "JAZ_ACRO": "MFR+GStr",
   "CU INDEX": "SEL-06-16",
   "OBJECTID": 250
 },
 {
   "SITE NAME": "YOHETTA CREEK",
   "CU NAME": "Taseko-Early Summer Timing",
   "CU TYPE": "Current",
   "FID": 221,
   "SP QUAL": "SEL",
   "POP ID": 7630,
   "GFE ID": 2382,
   "GEO FEATURE TYPE": "Stream",
   "YLAT": 51.22050453,
   "XLONG": -123.6383393,
   "FAZ_ACRO": "MFR",
   "MAZ_ACRO": "GStr",
   "JAZ_ACRO": "MFR+GStr",
   "CU INDEX": "SEL-06-16",
   "OBJECTID": 251
 },
 {
   "SITE NAME": "YOHETTA CREEK-UPPER",
   "CU NAME": "Taseko-Early Summer Timing",
   "CU TYPE": "Current",
   "FID": 222,
   "SP QUAL": "SEL",
   "POP ID": 7631,
   "GFE ID": 26767,
   "GEO FEATURE TYPE": "Stream segment",
   "YLAT": 51.24844467,
   "XLONG": -123.6837508,
   "FAZ_ACRO": "MFR",
   "MAZ_ACRO": "GStr",
   "JAZ_ACRO": "MFR+GStr",
   "CU INDEX": "SEL-06-16",
   "OBJECTID": 252
 },
 {
   "SITE NAME": "PORTAGE CREEK",
   "CU NAME": "Seton-Late Timing",
   "CU TYPE": "Bin",
   "FID": 223,
   "SP QUAL": "SEL",
   "POP ID": 47181,
   "GFE ID": 129,
   "GEO FEATURE TYPE": "Stream segment",
   "YLAT": 50.70803014,
   "XLONG": -122.2700586,
   "FAZ_ACRO": "MFR",
   "MAZ_ACRO": "GStr",
   "JAZ_ACRO": "MFR+GStr",
   "CU INDEX": "SEL-06-11",
   "OBJECTID": 253
 },
 {
   "SITE NAME": "GLACIER CREEK/MFR",
   "CU NAME": "Nadina/Francois-Early Summer Timing",
   "CU TYPE": "VREQ[Bin]",
   "FID": 224,
   "SP QUAL": "SEL",
   "POP ID": 69049,
   "GFE ID": 2638,
   "GEO FEATURE TYPE": "Stream",
   "YLAT": 53.88108319,
   "XLONG": -127.0272751,
   "FAZ_ACRO": "MFR",
   "MAZ_ACRO": "GStr",
   "JAZ_ACRO": "MFR+GStr",
   "CU INDEX": "SEL-06-20",
   "OBJECTID": 254
 },
 {
   "SITE NAME": "NADINA RIVER",
   "CU NAME": "Nadina/Francois-Early Summer Timing",
   "CU TYPE": "VREQ[Bin]",
   "FID": 225,
   "SP QUAL": "SEL",
   "POP ID": 3093,
   "GFE ID": 303,
   "GEO FEATURE TYPE": "Stream",
   "YLAT": 53.97855095,
   "XLONG": -126.5030467,
   "FAZ_ACRO": "MFR",
   "MAZ_ACRO": "GStr",
   "JAZ_ACRO": "MFR+GStr",
   "CU INDEX": "SEL-06-20",
   "OBJECTID": 255
 },
 {
   "SITE NAME": "NADINA RIVER",
   "CU NAME": "Nadina/Francois-Early Summer Timing",
   "CU TYPE": "VREQ[Bin]",
   "FID": 226,
   "SP QUAL": "SEL",
   "POP ID": 45525,
   "GFE ID": 303,
   "GEO FEATURE TYPE": "Stream",
   "YLAT": 53.97855095,
   "XLONG": -126.5030467,
   "FAZ_ACRO": "MFR",
   "MAZ_ACRO": "GStr",
   "JAZ_ACRO": "MFR+GStr",
   "CU INDEX": "SEL-06-20",
   "OBJECTID": 256
 },
 {
   "SITE NAME": "NADINA RIVER-UPPER",
   "CU NAME": "Nadina/Francois-Early Summer Timing",
   "CU TYPE": "VREQ[Bin]",
   "FID": 227,
   "SP QUAL": "SEL",
   "POP ID": 69015,
   "GFE ID": 71131,
   "GEO FEATURE TYPE": "Stream segment",
   "YLAT": 53.9085599,
   "XLONG": -127.1053131,
   "FAZ_ACRO": "MFR",
   "MAZ_ACRO": "GStr",
   "JAZ_ACRO": "MFR+GStr",
   "CU INDEX": "SEL-06-20",
   "OBJECTID": 257
 },
 {
   "SITE NAME": "ANTLER CREEK/UFR",
   "CU NAME": "Bowron-Early Summer Timing",
   "CU TYPE": "Current",
   "FID": 228,
   "SP QUAL": "SEL",
   "POP ID": 47449,
   "GFE ID": 160,
   "GEO FEATURE TYPE": "Stream",
   "YLAT": 53.25874914,
   "XLONG": -121.4120166,
   "FAZ_ACRO": "UFR",
   "MAZ_ACRO": "GStr",
   "JAZ_ACRO": "UFR+GStr",
   "CU INDEX": "SEL-07-01",
   "OBJECTID": 258
 },
 {
   "SITE NAME": "BOWRON RIVER",
   "CU NAME": "Bowron-Early Summer Timing",
   "CU TYPE": "Current",
   "FID": 229,
   "SP QUAL": "SEL",
   "POP ID": 47419,
   "GFE ID": 157,
   "GEO FEATURE TYPE": "Stream",
   "YLAT": 54.05689106,
   "XLONG": -121.8230933,
   "FAZ_ACRO": "UFR",
   "MAZ_ACRO": "GStr",
   "JAZ_ACRO": "UFR+GStr",
   "CU INDEX": "SEL-07-01",
   "OBJECTID": 259
 },
 {
   "SITE NAME": "BOWRON RIVER-UPPER",
   "CU NAME": "Bowron-Early Summer Timing",
   "CU TYPE": "Current",
   "FID": 230,
   "SP QUAL": "SEL",
   "POP ID": 69025,
   "GFE ID": 71137,
   "GEO FEATURE TYPE": "Stream",
   "YLAT": 53.2171704,
   "XLONG": -121.3242697,
   "FAZ_ACRO": "UFR",
   "MAZ_ACRO": "GStr",
   "JAZ_ACRO": "UFR+GStr",
   "CU INDEX": "SEL-07-01",
   "OBJECTID": 260
 },
 {
   "SITE NAME": "HUCKEY CREEK",
   "CU NAME": "Bowron-Early Summer Timing",
   "CU TYPE": "Current",
   "FID": 231,
   "SP QUAL": "SEL",
   "POP ID": 3219,
   "GFE ID": 2827,
   "GEO FEATURE TYPE": "Stream",
   "YLAT": 53.16615595,
   "XLONG": -121.2191086,
   "FAZ_ACRO": "UFR",
   "MAZ_ACRO": "GStr",
   "JAZ_ACRO": "UFR+GStr",
   "CU INDEX": "SEL-07-01",
   "OBJECTID": 261
 },
 {
   "SITE NAME": "KIBBEE CREEK",
   "CU NAME": "Bowron-Early Summer Timing",
   "CU TYPE": "Current",
   "FID": 232,
   "SP QUAL": "SEL",
   "POP ID": 69023,
   "GFE ID": 71135,
   "GEO FEATURE TYPE": "Stream",
   "YLAT": 53.25423414,
   "XLONG": -121.3886491,
   "FAZ_ACRO": "UFR",
   "MAZ_ACRO": "GStr",
   "JAZ_ACRO": "UFR+GStr",
   "CU INDEX": "SEL-07-01",
   "OBJECTID": 262
 },
 {
   "SITE NAME": "ADAMS RIVER",
   "CU NAME": "Shuswap Complex-Early Summer Timing",
   "CU TYPE": "Current",
   "FID": 233,
   "SP QUAL": "SEL",
   "POP ID": 46238,
   "GFE ID": 220,
   "GEO FEATURE TYPE": "Stream",
   "YLAT": 50.89386286,
   "XLONG": -119.5505675,
   "FAZ_ACRO": "STh",
   "MAZ_ACRO": "GStr",
   "JAZ_ACRO": "STh+GStr",
   "CU INDEX": "SEL-09-02",
   "OBJECTID": 263
 },
 {
   "SITE NAME": "ADAMS RIVER SPAWNING CHANNEL",
   "CU NAME": "Shuswap Complex-Early Summer Timing",
   "CU TYPE": "Current",
   "FID": 234,
   "SP QUAL": "SEL",
   "POP ID": 45082,
   "GFE ID": 2432,
   "GEO FEATURE TYPE": "Artificial Channel",
   "YLAT": 51.02684994,
   "XLONG": -119.6500286,
   "FAZ_ACRO": "STh",
   "MAZ_ACRO": "GStr",
   "JAZ_ACRO": "STh+GStr",
   "CU INDEX": "SEL-09-02",
   "OBJECTID": 264
 },
 {
   "SITE NAME": "ANSTEY RIVER",
   "CU NAME": "Shuswap Complex-Early Summer Timing",
   "CU TYPE": "Current",
   "FID": 235,
   "SP QUAL": "SEL",
   "POP ID": 46348,
   "GFE ID": 231,
   "GEO FEATURE TYPE": "Stream",
   "YLAT": 51.13123921,
   "XLONG": -118.8994306,
   "FAZ_ACRO": "STh",
   "MAZ_ACRO": "GStr",
   "JAZ_ACRO": "STh+GStr",
   "CU INDEX": "SEL-09-02",
   "OBJECTID": 265
 },
 {
   "SITE NAME": "BLUEBERRY CREEK",
   "CU NAME": "Shuswap Complex-Early Summer Timing",
   "CU TYPE": "Current",
   "FID": 236,
   "SP QUAL": "SEL",
   "POP ID": 7632,
   "GFE ID": 26768,
   "GEO FEATURE TYPE": "Stream",
   "YLAT": 51.19719511,
   "XLONG": -119.0184758,
   "FAZ_ACRO": "STh",
   "MAZ_ACRO": "GStr",
   "JAZ_ACRO": "STh+GStr",
   "CU INDEX": "SEL-09-02",
   "OBJECTID": 266
 },
 {
   "SITE NAME": "CELISTA CREEK",
   "CU NAME": "Shuswap Complex-Early Summer Timing",
   "CU TYPE": "Current",
   "FID": 237,
   "SP QUAL": "SEL",
   "POP ID": 46319,
   "GFE ID": 228,
   "GEO FEATURE TYPE": "Stream",
   "YLAT": 51.19733738,
   "XLONG": -119.0048077,
   "FAZ_ACRO": "STh",
   "MAZ_ACRO": "GStr",
   "JAZ_ACRO": "STh+GStr",
   "CU INDEX": "SEL-09-02",
   "OBJECTID": 267
 },
 {
   "SITE NAME": "CRAIGELLACHIE CREEK",
   "CU NAME": "Shuswap Complex-Early Summer Timing",
   "CU TYPE": "Current",
   "FID": 238,
   "SP QUAL": "SEL",
   "POP ID": 3437,
   "GFE ID": 1996,
   "GEO FEATURE TYPE": "Stream",
   "YLAT": 50.97363983,
   "XLONG": -118.7249977,
   "FAZ_ACRO": "STh",
   "MAZ_ACRO": "GStr",
   "JAZ_ACRO": "STh+GStr",
   "CU INDEX": "SEL-09-02",
   "OBJECTID": 268
 },
 {
   "SITE NAME": "CRAZY CREEK/STh",
   "CU NAME": "Shuswap Complex-Early Summer Timing",
   "CU TYPE": "Current",
   "FID": 239,
   "SP QUAL": "SEL",
   "POP ID": 810,
   "GFE ID": 1997,
   "GEO FEATURE TYPE": "Stream",
   "YLAT": 50.99115159,
   "XLONG": -118.6470889,
   "FAZ_ACRO": "STh",
   "MAZ_ACRO": "GStr",
   "JAZ_ACRO": "STh+GStr",
   "CU INDEX": "SEL-09-02",
   "OBJECTID": 269
 },
 {
   "SITE NAME": "EAGLE RIVER",
   "CU NAME": "Shuswap Complex-Early Summer Timing",
   "CU TYPE": "Current",
   "FID": 240,
   "SP QUAL": "SEL",
   "POP ID": 46358,
   "GFE ID": 232,
   "GEO FEATURE TYPE": "Stream",
   "YLAT": 50.84336958,
   "XLONG": -119.0109085,
   "FAZ_ACRO": "STh",
   "MAZ_ACRO": "GStr",
   "JAZ_ACRO": "STh+GStr",
   "CU INDEX": "SEL-09-02",
   "OBJECTID": 270
 },
 {
   "SITE NAME": "FOUR MILE CREEK/STh",
   "CU NAME": "Shuswap Complex-Early Summer Timing",
   "CU TYPE": "Current",
   "FID": 241,
   "SP QUAL": "SEL",
   "POP ID": 7636,
   "GFE ID": 26771,
   "GEO FEATURE TYPE": "Stream",
   "YLAT": 51.08502187,
   "XLONG": -118.8958446,
   "FAZ_ACRO": "STh",
   "MAZ_ACRO": "GStr",
   "JAZ_ACRO": "STh+GStr",
   "CU INDEX": "SEL-09-02",
   "OBJECTID": 271
 },
 {
   "SITE NAME": "HIUIHILL CREEK",
   "CU NAME": "Shuswap Complex-Early Summer Timing",
   "CU TYPE": "Current",
   "FID": 242,
   "SP QUAL": "SEL",
   "POP ID": 44983,
   "GFE ID": 2373,
   "GEO FEATURE TYPE": "Stream",
   "YLAT": 50.92252401,
   "XLONG": -119.6338982,
   "FAZ_ACRO": "STh",
   "MAZ_ACRO": "GStr",
   "JAZ_ACRO": "STh+GStr",
   "CU INDEX": "SEL-09-02",
   "OBJECTID": 272
 },
 {
   "SITE NAME": "HUNAKWA CREEK",
   "CU NAME": "Shuswap Complex-Early Summer Timing",
   "CU TYPE": "Current",
   "FID": 243,
   "SP QUAL": "SEL",
   "POP ID": 46338,
   "GFE ID": 230,
   "GEO FEATURE TYPE": "Stream",
   "YLAT": 51.13383191,
   "XLONG": -118.9175881,
   "FAZ_ACRO": "STh",
   "MAZ_ACRO": "GStr",
   "JAZ_ACRO": "STh+GStr",
   "CU INDEX": "SEL-09-02",
   "OBJECTID": 273
 },
 {
   "SITE NAME": "LOFTUS CREEK",
   "CU NAME": "Shuswap Complex-Early Summer Timing",
   "CU TYPE": "Current",
   "FID": 244,
   "SP QUAL": "SEL",
   "POP ID": 45085,
   "GFE ID": 2434,
   "GEO FEATURE TYPE": "Stream",
   "YLAT": 50.93048131,
   "XLONG": -118.8020418,
   "FAZ_ACRO": "STh",
   "MAZ_ACRO": "GStr",
   "JAZ_ACRO": "STh+GStr",
   "CU INDEX": "SEL-09-02",
   "OBJECTID": 274
 },
 {
   "SITE NAME": "MCNOMEE CREEK",
   "CU NAME": "Shuswap Complex-Early Summer Timing",
   "CU TYPE": "Current",
   "FID": 245,
   "SP QUAL": "SEL",
   "POP ID": 45014,
   "GFE ID": 2392,
   "GEO FEATURE TYPE": "Stream",
   "YLAT": 51.26468696,
   "XLONG": -118.9454165,
   "FAZ_ACRO": "STh",
   "MAZ_ACRO": "GStr",
   "JAZ_ACRO": "STh+GStr",
   "CU INDEX": "SEL-09-02",
   "OBJECTID": 275
 },
 {
   "SITE NAME": "NIKWIKWAIA CREEK",
   "CU NAME": "Shuswap Complex-Early Summer Timing",
   "CU TYPE": "Current",
   "FID": 246,
   "SP QUAL": "SEL",
   "POP ID": 45008,
   "GFE ID": 2388,
   "GEO FEATURE TYPE": "Stream",
   "YLAT": 50.938893,
   "XLONG": -119.6551932,
   "FAZ_ACRO": "STh",
   "MAZ_ACRO": "GStr",
   "JAZ_ACRO": "STh+GStr",
   "CU INDEX": "SEL-09-02",
   "OBJECTID": 276
 },
 {
   "SITE NAME": "ONYX CREEK",
   "CU NAME": "Shuswap Complex-Early Summer Timing",
   "CU TYPE": "Current",
   "FID": 247,
   "SP QUAL": "SEL",
   "POP ID": 46298,
   "GFE ID": 226,
   "GEO FEATURE TYPE": "Stream",
   "YLAT": 50.95367081,
   "XLONG": -119.2828115,
   "FAZ_ACRO": "STh",
   "MAZ_ACRO": "GStr",
   "JAZ_ACRO": "STh+GStr",
   "CU INDEX": "SEL-09-02",
   "OBJECTID": 277
 },
 {
   "SITE NAME": "PERRY RIVER/STh",
   "CU NAME": "Shuswap Complex-Early Summer Timing",
   "CU TYPE": "Current",
   "FID": 248,
   "SP QUAL": "SEL",
   "POP ID": 45026,
   "GFE ID": 2394,
   "GEO FEATURE TYPE": "Stream",
   "YLAT": 50.99447159,
   "XLONG": -118.6881933,
   "FAZ_ACRO": "STh",
   "MAZ_ACRO": "GStr",
   "JAZ_ACRO": "STh+GStr",
   "CU INDEX": "SEL-09-02",
   "OBJECTID": 278
 },
 {
   "SITE NAME": "SALMON RIVER/STh",
   "CU NAME": "Shuswap Complex-Early Summer Timing",
   "CU TYPE": "Current",
   "FID": 249,
   "SP QUAL": "SEL",
   "POP ID": 46399,
   "GFE ID": 237,
   "GEO FEATURE TYPE": "Stream",
   "YLAT": 50.69681861,
   "XLONG": -119.3112952,
   "FAZ_ACRO": "STh",
   "MAZ_ACRO": "GStr",
   "JAZ_ACRO": "STh+GStr",
   "CU INDEX": "SEL-09-02",
   "OBJECTID": 279
 },
 {
   "SITE NAME": "SCOTCH CREEK",
   "CU NAME": "Shuswap Complex-Early Summer Timing",
   "CU TYPE": "Current",
   "FID": 250,
   "SP QUAL": "SEL",
   "POP ID": 46288,
   "GFE ID": 225,
   "GEO FEATURE TYPE": "Stream",
   "YLAT": 50.90709332,
   "XLONG": -119.4921574,
   "FAZ_ACRO": "STh",
   "MAZ_ACRO": "GStr",
   "JAZ_ACRO": "STh+GStr",
   "CU INDEX": "SEL-09-02",
   "OBJECTID": 280
 },
 {
   "SITE NAME": "SEYMOUR RIVER/STh",
   "CU NAME": "Shuswap Complex-Early Summer Timing",
   "CU TYPE": "Current",
   "FID": 251,
   "SP QUAL": "SEL",
   "POP ID": 46328,
   "GFE ID": 229,
   "GEO FEATURE TYPE": "Stream",
   "YLAT": 51.23862931,
   "XLONG": -118.9593268,
   "FAZ_ACRO": "STh",
   "MAZ_ACRO": "GStr",
   "JAZ_ACRO": "STh+GStr",
   "CU INDEX": "SEL-09-02",
   "OBJECTID": 281
 },
 {
   "SITE NAME": "SHUSWAP RIVER-MIDDLE",
   "CU NAME": "Shuswap Complex-Early Summer Timing",
   "CU TYPE": "Current",
   "FID": 252,
   "SP QUAL": "SEL",
   "POP ID": 46439,
   "GFE ID": 241,
   "GEO FEATURE TYPE": "Stream segment",
   "YLAT": 50.43116687,
   "XLONG": -118.7500343,
   "FAZ_ACRO": "STh",
   "MAZ_ACRO": "GStr",
   "JAZ_ACRO": "STh+GStr",
   "CU INDEX": "SEL-09-02",
   "OBJECTID": 282
 },
 {
   "SITE NAME": "SINMAX CREEK",
   "CU NAME": "Shuswap Complex-Early Summer Timing",
   "CU TYPE": "Current",
   "FID": 253,
   "SP QUAL": "SEL",
   "POP ID": 46258,
   "GFE ID": 222,
   "GEO FEATURE TYPE": "Stream",
   "YLAT": 51.07678213,
   "XLONG": -119.7869024,
   "FAZ_ACRO": "STh",
   "MAZ_ACRO": "GStr",
   "JAZ_ACRO": "STh+GStr",
   "CU INDEX": "SEL-09-02",
   "OBJECTID": 283
 },
 {
   "SITE NAME": "UNNAMED CREEK",
   "CU NAME": "Shuswap Complex-Early Summer Timing",
   "CU TYPE": "Current",
   "FID": 254,
   "SP QUAL": "SEL",
   "POP ID": 7633,
   "GFE ID": 26769,
   "GEO FEATURE TYPE": "Stream",
   "YLAT": 51.17526377,
   "XLONG": -119.0258458,
   "FAZ_ACRO": "STh",
   "MAZ_ACRO": "GStr",
   "JAZ_ACRO": "STh+GStr",
   "CU INDEX": "SEL-09-02",
   "OBJECTID": 284
 },